city,streetAddress,zipcode,latitude,longitude,propertyTaxRate,garageSpaces,hasAssociation,hasCooling,hasGarage,hasHeating,hasSpa,hasView,homeType,parkingSpaces,yearBuilt,latestPrice,numPriceChanges,latest_saledate,latest_salemonth,latest_saleyear,numOfPhotos,numOfAccessibilityFeatures,numOfAppliances,numOfParkingFeatures,numOfPatioAndPorchFeatures,numOfSecurityFeatures,numOfWaterfrontFeatures,numOfWindowFeatures,numOfCommunityFeatures,lotSizeSqFt,livingAreaSqFt,numOfPrimarySchools,numOfElementarySchools,numOfMiddleSchools,numOfHighSchools,avgSchoolDistance,avgSchoolRating,avgSchoolSize,MedianStudentsPerTeacher,numOfBathrooms,numOfBedrooms,numOfStories,houseAge,pricePerSqFt
pflugerville,14424 Lake Victor Dr,78660,30.43063163757324,-97.66307830810548,1.98,2,True,True,True,True,False,False,Single Family,2,2012,305000.0,5,2019-09-02,9,2019,39,0,5,2,1,3,0,1,0,6011.0,2601.0,1,0,1,1,1.2666666666666668,2.6666666666666665,1063,14,3.0,4,2,13,117.26259131103421
pflugerville,1104 Strickling Dr,78660,30.43267250061035,-97.66169738769533,1.98,2,True,True,True,True,False,False,Single Family,2,2013,295000.0,1,2020-10-13,10,2020,29,0,1,2,0,0,0,0,0,6185.0,1768.0,1,0,1,1,1.4,2.6666666666666665,1063,14,2.0,4,1,12,166.8552036199095
pflugerville,1408 Fort Dessau Rd,78660,30.409748077392567,-97.6397705078125,1.98,0,True,True,False,True,False,False,Single Family,0,2018,256125.0,1,2019-07-31,7,2019,2,0,4,1,0,1,0,0,0,7840.0,1478.0,0,2,1,1,1.2,3.0,1108,14,2.0,3,1,7,173.2916102841678
pflugerville,1025 Strickling Dr,78660,30.432111740112305,-97.66165924072266,1.98,2,True,True,True,True,False,False,Single Family,2,2013,240000.0,4,2018-08-08,8,2018,9,0,0,2,0,0,0,0,0,6098.0,1678.0,1,0,1,1,1.4,2.6666666666666665,1063,14,2.0,3,1,12,143.0274135876043
pflugerville,15005 Donna Jane Loop,78660,30.437368392944336,-97.6568603515625,1.98,0,True,True,False,True,False,False,Single Family,0,2002,239900.0,3,2018-10-31,10,2018,27,0,0,1,0,0,0,0,0,6708.0,2132.0,1,0,1,1,1.1333333333333335,4.0,1223,14,3.0,3,2,23,112.5234521575985
pflugerville,14908 Spring Hill Ln,78660,30.437774658203125,-97.65618133544922,1.98,2,True,True,True,True,False,False,Single Family,2,2020,309045.0,2,2020-08-05,8,2020,2,0,3,1,2,2,0,0,0,5161.0,1446.0,1,0,1,1,1.0666666666666669,4.0,1223,14,2.0,3,1,5,213.7240663900415
pflugerville,14009 Cantata Ln,78660,30.414684295654297,-97.64339447021484,1.98,0,True,False,False,False,False,False,Single Family,0,2016,315000.0,2,2020-06-11,6,2020,36,0,3,1,0,0,0,0,0,12196.8,2432.0,1,0,1,1,1.2333333333333334,3.6666666666666665,1051,12,3.0,4,2,9,129.52302631578948
pflugerville,15009 Drusillas Dr,78660,30.43940353393555,-97.65803527832033,1.98,0,True,True,False,True,False,False,Single Family,0,2002,219900.0,2,2018-10-10,10,2018,21,0,3,1,0,0,0,0,0,5140.0,1422.0,1,0,1,1,1.1666666666666667,4.0,1223,14,3.0,3,2,23,154.64135021097047
pflugerville,1104 Traci Michelle Dr,78660,30.439096450805664,-97.657958984375,1.98,0,True,True,False,True,False,False,Single Family,0,2002,225000.0,1,2019-09-19,9,2019,16,0,2,1,1,1,0,0,0,3811.0,1870.0,1,0,1,1,1.1666666666666667,4.0,1223,14,2.0,3,2,23,120.32085561497327
del valle,6808 Plains Crest Dr,78617,30.160701751708984,-97.63812255859376,1.98,2,True,True,True,True,False,False,Single Family,2,2013,194800.0,1,2018-09-11,9,2018,23,0,3,2,0,0,0,0,0,5183.0,1422.0,1,0,1,1,1.2,3.0,1615,14,3.0,3,2,12,136.9901547116737
pflugerville,1100 Oblique Dr,78660,30.414934158325195,-97.6432876586914,1.98,2,True,True,True,True,False,False,Single Family,2,2016,279900.0,2,2020-08-28,8,2020,32,0,3,2,0,3,0,0,0,5401.0,1580.0,1,0,1,1,1.2,3.6666666666666665,1051,12,2.0,3,1,9,177.15189873417722
del valle,12612 Stoney Ridge Bnd,78617,30.159337997436523,-97.63335418701172,1.98,0,True,True,False,True,False,False,Single Family,0,2016,250000.0,1,2019-04-12,4,2019,37,0,4,1,0,0,0,0,0,4965.0,2281.0,1,0,1,1,1.2,3.0,1615,14,3.0,3,2,9,109.60105217010083
del valle,12813 Buenos Aires Pkwy,78617,30.167768478393555,-97.6234359741211,1.98,2,True,True,True,True,False,True,Single Family,2,2005,239900.0,9,2020-09-05,9,2020,28,0,4,2,1,0,0,0,0,6011.0,1762.0,1,0,1,1,0.6333333333333333,3.333333333333333,1626,14,2.0,4,1,20,136.15209988649264
del valle,11601 Arrowmound Pass,78617,30.15428352355957,-97.65058135986328,1.98,0,True,True,False,True,False,False,Single Family,0,2003,200000.0,1,2018-12-15,12,2018,16,0,4,1,0,0,0,0,0,6926.0,1326.0,1,0,1,1,1.8333333333333333,3.0,1615,14,2.0,3,1,22,150.82956259426848
del valle,12221 Ferrystone Cv,78617,30.15972137451172,-97.6362762451172,1.98,2,True,True,True,True,False,False,Single Family,2,2010,131679.0,5,2020-08-18,8,2020,54,0,2,2,1,1,0,0,0,10846.0,1655.0,1,0,1,1,1.2333333333333334,3.0,1615,14,3.0,3,2,15,79.56435045317221
del valle,11712 Maybach Dr,78617,30.15768814086914,-97.64641571044922,1.98,2,True,True,True,True,False,False,Single Family,2,2000,200000.0,1,2020-06-02,6,2020,25,0,4,2,3,1,0,1,0,6621.0,1228.0,1,0,1,1,1.4666666666666668,3.0,1615,14,2.0,3,1,25,162.86644951140065
del valle,6004 Arnhem Cv,78617,30.168758392333984,-97.61647033691406,1.98,2,True,True,True,True,False,False,Single Family,2,2009,212000.0,5,2019-02-27,2,2019,26,0,3,2,0,0,0,0,0,10802.0,1752.0,1,0,1,1,0.5666666666666667,3.333333333333333,1626,14,2.0,4,1,16,121.00456621004567
austin,15524 Staked Plains Loop,78717,30.49437522888184,-97.79651641845705,2.21,2,True,True,True,True,False,True,Single Family,2,2007,409000.0,4,2018-12-03,12,2018,31,0,6,3,0,0,0,0,0,9060.0,3233.0,1,0,1,1,1.933333333333333,8.333333333333334,1481,16,4.0,5,2,18,126.50788741107331
austin,15217 Sabal Palm Rd,78724,30.25570678710937,-97.57695770263672,1.98,2,False,True,True,True,False,False,Single Family,2,2006,199000.0,3,2020-12-22,12,2020,21,1,2,2,1,0,0,0,0,7448.0,1511.0,1,0,1,1,2.4333333333333336,2.6666666666666665,1478,13,2.0,3,1,19,131.7008603573792
austin,14004 Chisos Trl,78717,30.49563789367676,-97.7978744506836,2.21,0,True,True,False,True,False,False,Single Family,0,2008,400000.0,2,2020-01-10,1,2020,20,0,3,2,0,0,0,0,0,7666.0,2228.0,1,0,1,1,1.9,8.333333333333334,1481,16,2.0,3,1,17,179.53321364452424
austin,14702 Menifee St,78725,30.233154296875,-97.58731842041016,1.98,2,False,True,True,True,False,False,Single Family,2,1999,240000.0,2,2020-12-31,12,2020,10,0,4,2,2,0,0,0,0,5183.0,1534.0,1,0,1,1,1.8,3.0,1457,13,3.0,3,1,26,156.45371577574969
austin,15303 Lucian St,78725,30.23806571960449,-97.57801818847656,1.98,2,True,True,True,True,False,False,Single Family,2,2013,249900.0,1,2020-12-04,12,2020,35,2,3,2,1,1,0,0,0,7405.0,1738.0,1,0,1,1,1.9666666666666668,3.0,1457,13,2.0,3,1,12,143.78596087456847
austin,14224 Canyon Trl,78717,30.492189407348643,-97.79308319091795,2.21,3,True,True,True,True,False,False,Single Family,3,2010,400000.0,2,2020-04-22,4,2020,21,0,3,3,2,1,0,1,0,12196.8,2630.0,1,0,1,1,2.0333333333333337,8.333333333333334,1481,16,3.0,5,2,15,152.0912547528517
austin,15207 Lucian St,78725,30.238237380981445,-97.57833099365234,1.98,2,True,True,True,True,False,False,Single Family,2,2012,200000.0,1,2018-01-30,1,2018,33,0,5,2,0,0,0,0,0,8145.0,1652.0,1,0,1,1,1.9666666666666668,3.0,1457,13,2.0,3,1,13,121.06537530266344
austin,5509 Bonneville Bnd,78744,30.17614555358887,-97.6981430053711,1.98,2,True,True,True,True,False,False,Single Family,2,2016,287500.0,2,2019-04-18,4,2019,40,0,4,2,0,0,0,0,0,6141.0,1634.0,1,0,1,1,2.9,3.6666666666666665,1532,12,2.0,3,1,9,175.9485924112607
austin,10912 Crosbyton Ln,78717,30.488996505737305,-97.79379272460938,2.21,2,True,True,True,True,False,False,Single Family,2,2013,650000.0,1,2020-03-25,3,2020,1,0,3,3,1,0,0,2,0,8363.0,3047.0,1,0,1,1,3.3000000000000003,7.666666666666668,1259,14,4.0,4,1,12,213.3245815556285
austin,4606 Belfield Ln,78725,30.24176788330078,-97.5790557861328,1.98,0,True,True,False,True,False,False,Single Family,0,2015,196000.0,1,2019-01-10,1,2019,29,0,7,1,0,0,0,0,0,5532.0,1399.0,1,0,1,1,1.9333333333333336,3.0,1457,13,2.0,3,1,10,140.1000714796283
austin,14500 James Vincent Dr,78725,30.231584548950195,-97.5912628173828,1.98,0,True,True,False,True,False,False,Single Family,0,2000,219990.0,1,2019-06-07,6,2019,24,0,4,1,0,1,0,0,0,6229.0,2035.0,1,0,1,1,1.7666666666666666,3.0,1457,13,3.0,3,2,25,108.1031941031941
austin,11928 Aitne Ln,78725,30.2150993347168,-97.63643646240234,1.98,0,True,True,False,True,False,False,Single Family,0,2009,195000.0,1,2019-03-28,3,2019,26,0,4,1,0,0,0,0,0,6751.0,1304.0,1,0,1,1,3.266666666666667,3.0,1457,13,2.0,3,1,16,149.53987730061348
austin,5524 Loma Alta Dr,78744,30.175445556640625,-97.69815826416016,1.98,2,True,True,True,True,False,False,Single Family,2,2016,309999.0,1,2018-03-26,3,2018,31,0,7,2,0,0,0,0,0,7100.0,1907.0,1,0,1,1,2.9,3.6666666666666665,1532,12,3.0,3,2,9,162.55846879916098
austin,10707 Beckwood Dr,78726,30.44289970397949,-97.82464599609376,1.98,2,True,True,True,True,False,False,Single Family,2,1988,427000.0,5,2020-03-04,3,2020,8,0,2,2,2,2,0,1,0,10890.0,2484.0,1,0,1,1,1.2333333333333332,8.0,1275,15,3.0,4,2,37,171.90016103059583
austin,2703 Crownover St,78725,30.22610282897949,-97.59052276611328,1.98,0,True,True,False,True,False,False,Single Family,0,2006,205000.0,2,2018-01-25,1,2018,24,0,6,1,0,0,0,0,0,4399.0,2088.0,1,0,1,1,1.9,3.0,1457,13,3.0,4,1,19,98.1800766283525
austin,11429 Running Brush Ln,78717,30.494144439697266,-97.79753112792967,2.21,0,True,True,False,True,False,True,Single Family,0,2008,344600.0,3,2019-09-05,9,2019,41,0,5,2,2,0,0,2,0,6786.0,2134.0,1,0,1,1,2.0,8.333333333333334,1481,16,3.0,3,2,17,161.48078725398312
austin,7212 Garnet Mill Ln,78744,30.16147994995117,-97.72125244140624,1.98,2,True,True,True,True,False,False,Single Family,2,2015,399900.0,1,2020-06-26,6,2020,40,0,4,2,1,4,0,0,0,8537.0,2629.0,1,0,1,1,3.1333333333333333,3.6666666666666665,1532,12,3.0,3,1,10,152.11106884747053
austin,10700 Mcfarlie Cv,78750,30.42639350891113,-97.79273223876952,1.98,2,False,True,True,True,True,False,Single Family,2,1991,648000.0,6,2020-11-30,11,2020,50,0,6,2,2,2,0,0,0,11325.6,2567.0,1,0,1,1,1.1666666666666667,9.0,1616,16,3.0,4,2,34,252.43474873393066
austin,2521 Elara Dr,78725,30.213117599487305,-97.63728332519533,1.98,0,True,True,False,True,False,False,Single Family,0,2009,186500.0,1,2018-02-01,2,2018,6,0,3,1,0,0,0,0,0,7797.0,1420.0,1,0,1,1,3.3000000000000003,3.0,1457,13,2.0,3,1,16,131.33802816901408
austin,804 Hatton Hill Ct,78725,30.23823547363281,-97.58043670654295,1.98,2,True,True,True,True,False,False,Single Family,2,2015,219000.0,1,2020-04-03,4,2020,28,0,5,2,1,1,0,0,0,4617.0,1267.0,1,0,1,1,1.9,3.0,1457,13,2.0,3,1,10,172.8492501973165
austin,3100 Caleb Dr,78725,30.22929382324219,-97.59007263183594,1.98,0,True,True,False,True,False,False,Single Family,0,2004,179900.0,1,2018-03-22,3,2018,25,0,0,1,0,0,0,0,0,5924.0,1194.0,1,0,1,1,1.8333333333333333,3.0,1457,13,2.0,3,1,21,150.67001675041877
austin,13500 Hymeadow Cir,78729,30.4632568359375,-97.78580474853516,2.21,0,True,True,False,True,False,False,Single Family,0,2011,405000.0,1,2020-02-18,2,2020,28,0,3,2,2,1,0,1,0,5619.0,2142.0,1,0,1,1,2.3000000000000003,6.0,1228,14,2.0,3,1,14,189.07563025210084
austin,2312 Elara Dr,78725,30.21501922607422,-97.63804626464844,1.98,0,True,True,False,True,False,False,Single Family,0,2014,194098.0,1,2019-03-06,3,2019,9,0,5,1,0,0,0,0,0,5445.0,1296.0,1,0,1,1,3.333333333333333,3.0,1457,13,2.0,3,1,11,149.76697530864197
austin,5708 Roderick Dr,78724,30.25937271118164,-97.58674621582033,1.98,1,True,True,True,True,False,False,Single Family,1,2018,255700.0,2,2019-04-05,4,2019,22,0,3,2,0,0,0,0,0,6098.0,2570.0,1,0,1,1,2.2,2.6666666666666665,1478,13,3.0,4,2,7,99.49416342412451
austin,10701 Beckwood Dr,78726,30.442386627197266,-97.8249969482422,1.98,0,True,True,False,True,False,False,Single Family,0,1989,495000.0,1,2019-06-07,6,2019,1,0,3,1,0,0,0,0,0,9147.0,3140.0,1,0,1,1,1.2333333333333334,8.0,1275,15,3.0,5,2,36,157.64331210191082
austin,5504 Loma Alta Dr,78744,30.17613220214844,-97.6977310180664,1.98,2,True,True,True,True,False,False,Single Family,2,2016,325000.0,4,2020-08-18,8,2020,67,0,4,2,1,1,0,1,0,6141.0,2068.0,1,0,1,1,2.9,3.6666666666666665,1532,12,3.0,4,2,9,157.1566731141199
austin,15101 Nordyke Ln,78725,30.23895072937012,-97.58032989501952,1.98,2,True,True,True,True,False,True,Single Family,2,2006,198500.0,4,2020-04-13,4,2020,27,0,5,2,1,1,0,0,0,5749.0,1807.0,1,0,1,1,1.8666666666666665,3.0,1457,13,2.0,4,1,19,109.85058107360265
austin,10615 Beckwood Dr,78726,30.442228317260746,-97.82511138916016,1.98,2,True,True,True,True,False,True,Single Family,2,1990,485000.0,1,2020-10-30,10,2020,60,0,5,2,1,1,0,0,0,8624.0,2956.0,1,0,1,1,1.2333333333333334,8.0,1275,15,3.0,5,1,35,164.07307171853856
austin,12100 Wickline Way,78717,30.49202919006348,-97.79917907714844,2.21,2,True,True,True,True,False,False,Single Family,2,2016,440000.0,1,2020-05-15,5,2020,31,0,4,3,1,2,0,1,0,5536.0,2595.0,1,0,1,1,2.1,8.333333333333334,1481,16,3.0,5,2,9,169.55684007707129
austin,2525 Elara Dr,78725,30.21296501159668,-97.63726806640624,1.98,0,True,True,False,True,False,False,Single Family,0,2010,225000.0,2,2019-02-01,2,2019,19,0,5,1,0,0,0,0,0,9626.0,1420.0,1,0,1,1,3.3000000000000003,3.0,1457,13,2.0,3,1,15,158.45070422535213
austin,4010 Louise Lee Dr,78725,30.24004554748535,-97.5873565673828,1.98,2,True,True,True,True,False,True,Single Family,2,2003,207900.0,4,2018-07-04,7,2018,26,0,2,2,0,0,0,0,0,5314.0,1929.0,1,0,1,1,1.633333333333333,3.0,1457,13,2.0,3,1,22,107.7760497667185
austin,10714 Fountainbleu Cir,78750,30.433971405029297,-97.8055191040039,1.98,2,True,True,True,True,True,False,Single Family,2,1976,575000.0,1,2021-01-08,1,2021,23,0,4,2,1,0,0,0,0,14810.4,2170.0,0,1,1,1,1.2,8.666666666666666,1632,16,2.0,4,1,49,264.9769585253456
austin,4015 Ayala Dr,78725,30.237213134765625,-97.58354949951172,1.98,0,True,True,False,True,False,False,Single Family,0,1996,200000.0,1,2019-09-24,9,2019,30,0,2,1,0,1,0,0,0,6969.0,1592.0,1,0,1,1,1.7666666666666666,3.0,1457,13,3.0,3,2,29,125.62814070351759
austin,7912 Annalise Dr,78744,30.17658805847168,-97.69738006591795,1.98,0,True,True,False,True,False,False,Single Family,0,2016,275000.0,1,2020-02-10,2,2020,40,0,4,1,0,0,0,1,0,5488.0,1449.0,1,0,1,1,2.9,3.6666666666666665,1532,12,2.0,3,1,9,189.78605935127675
austin,14611 Highsmith St,78725,30.23699188232422,-97.58533477783205,1.98,0,True,True,False,True,False,False,Single Family,0,1997,199999.0,4,2019-08-23,8,2019,18,0,3,1,1,0,0,0,0,5227.0,1335.0,1,0,1,1,1.7333333333333334,3.0,1457,13,2.0,3,1,28,149.8119850187266
austin,12011 Clayton Creek Ave,78725,30.22005844116211,-97.63460540771484,1.98,2,True,True,True,True,False,False,Single Family,2,2020,268729.0,5,2020-06-29,6,2020,1,0,3,1,0,1,0,1,0,4800.0,1514.0,1,0,1,1,3.1333333333333333,3.0,1457,13,2.0,3,1,5,177.49603698811097
austin,10701 Copper Basin Cv,78717,30.4880485534668,-97.79401397705078,2.21,0,True,True,False,True,False,False,Single Family,0,2013,625000.0,1,2019-07-22,7,2019,30,0,2,2,1,0,0,0,0,15681.6,3111.0,1,0,1,1,3.266666666666667,7.666666666666668,1259,14,3.0,4,1,12,200.90003214400514
austin,11204 Tanya Trl,78726,30.443117141723643,-97.8240737915039,1.98,4,True,True,True,True,False,False,Single Family,4,1989,435000.0,7,2020-07-24,7,2020,65,0,2,2,2,0,0,2,0,8973.0,3113.0,1,0,1,1,1.2,8.0,1275,15,3.0,4,2,36,139.73658849983937
austin,8016 Annalise Dr,78744,30.17620658874512,-97.696533203125,1.98,0,True,True,False,True,False,False,Single Family,0,2016,285000.0,2,2018-12-21,12,2018,1,0,4,1,0,0,0,0,0,5662.0,1973.0,1,0,1,1,2.9,3.6666666666666665,1532,12,3.0,3,2,9,144.45007602635582
austin,5602 Wolf Ct,78731,30.352840423583984,-97.79354858398438,1.98,0,True,True,False,True,False,False,Townhouse,0,1995,399900.0,1,2019-01-31,1,2019,26,0,3,1,0,0,0,0,0,3963.0,1487.0,1,0,1,1,3.4,7.0,1177,16,2.0,2,1,30,268.9307330195023
austin,809 Silver Wing Dr,78725,30.23677062988281,-97.58175659179688,1.98,0,True,True,False,True,False,False,Single Family,0,2016,215000.0,1,2019-08-16,8,2019,27,0,3,1,0,0,0,0,0,5749.0,1370.0,1,0,1,1,1.8333333333333333,3.0,1457,13,2.0,3,1,9,156.93430656934308
austin,12709 Cloud Mountain Xing,78726,30.42306327819824,-97.86306762695312,1.98,2,True,True,True,True,False,False,Single Family,2,2000,519500.0,3,2020-11-04,11,2020,67,0,2,2,1,3,0,0,0,7666.0,3055.0,1,0,1,1,2.1,7.0,1277,16,4.0,4,2,25,170.04909983633388
austin,9621 Solana Vista Loop #B,78750,30.39213752746582,-97.826904296875,1.98,0,True,True,False,True,False,False,Townhouse,0,2010,450000.0,1,2018-08-16,8,2018,14,0,2,1,0,0,0,0,0,6368.0,2283.0,1,0,1,1,0.6000000000000001,7.0,1381,16,3.0,4,2,15,197.1090670170828
austin,11100 Amesite Trl,78726,30.43273162841797,-97.8270034790039,1.98,0,True,True,False,True,False,False,Single Family,0,1995,463700.0,1,2018-10-02,10,2018,37,0,2,1,0,0,0,0,0,9539.0,3115.0,1,0,1,1,1.5333333333333332,8.0,1275,15,3.0,4,2,30,148.86035313001605
austin,14304 Rosseau St,78725,30.24313545227051,-97.58552551269533,1.98,2,True,True,True,True,False,False,Single Family,2,1987,209900.0,1,2020-03-03,3,2020,23,0,7,2,0,0,0,1,0,5558.0,1419.0,1,0,1,1,1.6666666666666667,3.0,1457,13,2.0,3,1,38,147.92107117688514
austin,12008 Thyone Dr,78725,30.21564483642578,-97.63555145263672,1.98,2,True,True,True,True,False,False,Single Family,2,2014,229900.0,1,2020-06-29,6,2020,32,0,2,2,1,1,0,0,0,4573.0,1936.0,1,0,1,1,3.2000000000000006,3.0,1457,13,3.0,4,2,11,118.75
austin,12726 Cloud Mountain Xing,78726,30.42333984375,-97.86441040039062,1.98,2,True,True,True,True,False,True,Single Family,2,2001,549900.0,1,2018-08-24,8,2018,38,0,3,2,0,0,0,0,0,10105.0,3794.0,1,0,1,1,2.1333333333333333,7.0,1277,16,4.0,4,2,24,144.93937796520822
austin,7003 Jester Blvd,78750,30.375999450683604,-97.7984848022461,1.98,0,True,True,False,True,False,False,Single Family,0,1983,690000.0,3,2019-01-19,1,2019,36,0,5,1,0,0,0,0,0,10367.0,2967.0,1,0,1,1,2.9333333333333336,7.0,1523,17,3.0,4,2,42,232.5581395348837
austin,10704 Copper Basin Cv,78717,30.48835182189941,-97.7944564819336,2.21,0,True,True,False,True,False,False,Single Family,0,2014,584900.0,1,2019-03-18,3,2019,43,0,3,2,0,0,0,0,0,7501.0,3787.0,1,0,1,1,3.2999999999999994,7.666666666666668,1259,14,4.0,5,2,11,154.44943226828624
pflugerville,1008 Bethel Way,78660,30.43100929260254,-97.66204071044922,1.98,2,True,True,True,True,False,False,Single Family,2,2011,287500.0,3,2018-06-30,6,2018,47,0,3,2,0,0,0,0,0,7623.0,2314.0,1,0,1,1,1.3333333333333333,2.6666666666666665,1063,14,3.0,5,1,14,124.2437337942956
austin,11902 Arch Hill Dr,78750,30.44328117370605,-97.79827880859376,1.98,0,True,True,False,True,False,False,Single Family,0,1977,599800.0,2,2019-09-30,9,2019,40,0,7,1,2,1,0,1,0,11325.6,2753.0,0,1,1,1,0.8333333333333334,8.666666666666666,1632,16,3.0,5,1,48,217.87141300399563
austin,5229 Bonneville Bnd,78744,30.178211212158203,-97.6968231201172,1.98,0,True,True,False,True,False,False,Single Family,0,2016,325000.0,1,2018-09-12,9,2018,22,0,4,1,0,0,0,0,0,6185.0,2068.0,1,0,1,1,2.9,3.6666666666666665,1532,12,3.0,4,2,9,157.1566731141199
austin,14904 Mistletoe Heights Dr,78717,30.500444412231445,-97.79090881347656,2.21,2,True,True,True,True,False,False,Single Family,2,2006,350000.0,2,2020-08-26,8,2020,27,0,4,3,1,1,0,1,0,5140.0,1791.0,1,0,1,1,1.6333333333333335,8.333333333333334,1481,16,3.0,3,2,19,195.4215522054718
austin,12704 Cloud Mountain Xing,78726,30.423627853393555,-97.86334991455078,1.98,0,True,True,False,True,False,False,Single Family,0,2001,574900.0,1,2018-03-01,3,2018,1,0,3,1,0,0,0,0,0,11325.6,3338.0,1,0,1,1,2.1333333333333333,7.0,1277,16,4.0,4,2,24,172.22887956860396
austin,9413 Solana Vista Loop #B,78750,30.393047332763672,-97.82636260986328,1.98,2,True,True,True,True,False,False,Condo,2,2013,374000.0,3,2019-04-22,4,2019,25,0,3,2,0,0,0,0,0,6368.0,2283.0,1,0,1,1,0.6,7.0,1381,16,3.0,4,2,12,163.81953569864214
austin,4617 Cleto St,78725,30.24139213562012,-97.57658386230467,1.98,0,True,True,False,True,False,False,Single Family,0,2017,205000.0,2,2019-09-20,9,2019,22,0,3,1,0,0,0,1,0,7274.0,1225.0,1,0,1,1,2.0333333333333337,3.0,1457,13,2.0,3,1,8,167.3469387755102
austin,8225 Phantom Canyon Dr,78726,30.425716400146484,-97.8606414794922,1.98,2,True,True,True,True,False,False,Single Family,2,2002,425000.0,3,2020-09-01,9,2020,120,0,3,2,1,2,0,1,0,9670.0,2864.0,1,0,1,1,2.066666666666667,7.0,1277,16,3.0,5,1,23,148.39385474860336
austin,5706 Eagle Clfs,78731,30.3537712097168,-97.79362487792967,1.98,0,True,True,False,True,False,False,Single Family,0,1984,425000.0,1,2019-07-17,7,2019,1,0,7,1,0,2,0,1,0,3920.0,1573.0,1,0,1,1,3.4333333333333336,7.0,1177,16,2.0,3,1,41,270.184361093452
austin,9008 Scotsman Dr,78750,30.42850685119629,-97.79425048828124,1.98,2,True,True,True,True,False,True,Single Family,2,1988,684000.0,3,2020-10-05,10,2020,55,0,3,2,1,1,0,0,0,10454.0,2656.0,1,0,1,1,1.2,9.0,1616,16,3.0,4,2,37,257.5301204819277
austin,10512 Dunham Forest Rd,78717,30.493675231933604,-97.7860107421875,2.21,2,True,True,True,True,False,True,Single Family,2,2002,359965.0,1,2020-07-15,7,2020,40,0,4,3,2,1,0,1,0,5140.0,1975.0,1,0,1,1,2.0,8.333333333333334,1481,16,3.0,4,2,23,182.2607594936709
austin,4602 Sherwyn Dr,78725,30.28166007995605,-97.66173553466795,1.98,0,False,True,False,True,False,False,Single Family,0,1971,120000.0,7,2018-06-25,6,2018,23,0,1,1,0,0,0,0,0,9452.0,1745.0,1,0,1,1,2.4666666666666663,3.6666666666666665,480,14,2.0,4,1,54,68.76790830945559
pflugerville,1012 Bethel Way,78660,30.431062698364247,-97.66221618652344,1.98,0,True,True,False,True,False,False,Single Family,0,2011,225000.0,5,2018-10-12,10,2018,34,0,4,1,0,0,0,0,0,8276.0,1375.0,1,0,1,1,1.3333333333333333,2.6666666666666665,1063,14,2.0,3,1,14,163.63636363636363
austin,7716 Barbary Ct,78744,30.16103935241699,-97.71595001220705,1.98,0,True,True,False,True,False,False,Single Family,0,2017,388990.0,3,2018-10-31,10,2018,5,0,4,1,0,0,0,0,0,6969.0,2502.0,1,0,1,1,3.1,3.6666666666666665,1532,12,3.0,4,1,8,155.47162270183853
austin,7601 Almond Cv,78750,30.38071632385254,-97.78955841064452,1.98,2,True,True,True,True,True,True,Single Family,2,1989,795000.0,2,2020-07-10,7,2020,37,0,7,2,0,1,0,1,0,15245.999999999998,2700.0,1,0,1,1,2.5,7.0,1523,17,3.0,4,2,36,294.44444444444446
austin,15013 Roody Ln,78725,30.236482620239247,-97.58241271972656,1.98,4,True,True,True,True,False,False,Single Family,4,2016,218800.0,2,2019-05-10,5,2019,44,0,3,2,0,0,0,0,0,5706.0,1480.0,1,0,1,1,1.8333333333333333,3.0,1457,13,2.0,3,1,9,147.83783783783784
austin,Esper Ln,78725,30.2393798828125,-97.57323455810548,1.98,0,True,True,False,True,False,False,Condo,0,2015,200000.0,1,2019-12-05,12,2019,24,0,3,1,2,1,0,0,0,6194.0,1321.0,1,0,1,1,2.2333333333333334,3.0,1457,13,3.0,3,2,10,151.4004542013626
austin,11104 Crossland Dr,78726,30.44245338439941,-97.82276916503906,1.98,0,True,True,False,True,False,False,Single Family,0,1989,368500.0,2,2018-03-27,3,2018,19,0,0,1,0,0,0,0,0,7230.0,2267.0,1,0,1,1,1.2,8.0,1275,15,2.0,4,1,36,162.54962505513896
austin,6217 Seville Dr,78724,30.29319190979004,-97.6419677734375,1.98,2,True,True,True,True,False,True,Single Family,2,2018,454500.0,1,2020-10-19,10,2020,44,0,1,2,2,2,0,1,0,5749.0,2508.0,1,0,1,2,2.9333333333333336,3.6666666666666665,1085,11,3.0,3,1,7,181.2200956937799
pflugerville,1101 Cadence Dr,78660,30.41343116760254,-97.6442642211914,1.98,2,True,True,True,True,False,False,Single Family,2,2017,285000.0,1,2020-07-02,7,2020,26,0,3,2,0,1,0,0,0,12196.8,1791.0,1,0,1,1,1.2,3.6666666666666665,1051,12,2.0,3,1,8,159.1289782244556
austin,14310 Cottingham Dr,78725,30.23320579528809,-97.5913543701172,1.98,0,True,True,False,True,False,False,Single Family,0,2010,199000.0,2,2020-02-11,2,2020,19,0,3,1,0,0,0,0,0,4007.0,1268.0,1,0,1,1,1.7333333333333334,3.0,1457,13,2.0,3,1,15,156.94006309148264
austin,14017 Genesee Trl,78717,30.48777961730957,-97.7927703857422,2.21,0,True,True,False,True,False,False,Single Family,0,2014,622800.0,1,2018-12-31,12,2018,36,0,3,2,0,0,0,0,0,7187.0,2903.0,1,0,1,1,3.266666666666667,7.666666666666668,1259,14,3.0,3,1,11,214.5366861867034
austin,12619 Cloud Mountain Xing,78726,30.423702239990234,-97.86214447021484,1.98,0,True,True,False,True,False,False,Single Family,0,2000,429000.0,9,2020-01-22,1,2020,32,0,5,1,1,0,0,0,0,11325.6,3033.0,1,0,1,1,2.033333333333333,7.0,1277,16,4.0,4,2,25,141.4441147378833
austin,9016 Elfen Cv,78724,30.283544540405284,-97.62621307373048,1.98,0,True,True,False,True,False,False,Single Family,0,2009,259900.0,1,2019-03-13,3,2019,33,0,3,1,0,0,0,0,0,12196.8,2573.0,1,0,1,2,2.733333333333333,3.6666666666666665,1085,11,3.0,3,2,16,101.01049358725224
austin,9010 Spring Lake Dr,78750,30.438554763793945,-97.7947235107422,1.98,5,True,True,True,True,False,True,Single Family,5,1977,629000.0,3,2020-10-22,10,2020,77,0,7,2,3,1,0,0,0,13503.6,2340.0,0,1,1,1,0.9,8.666666666666666,1632,16,3.0,4,2,48,268.8034188034188
austin,14109 Genesee Trl,78717,30.48757362365723,-97.7937240600586,2.21,0,True,True,False,True,False,True,Single Family,0,2014,525000.0,3,2019-02-20,2,2019,40,0,3,2,0,0,0,0,0,7710.0,3187.0,1,0,1,1,3.266666666666667,7.666666666666668,1259,14,3.0,4,2,11,164.73172262315657
austin,8108 Red Bird Ct,78726,30.424427032470703,-97.86241912841795,1.98,2,True,True,True,True,False,False,Single Family,2,2002,345000.0,6,2020-11-17,11,2020,55,0,1,3,4,2,0,0,0,7492.0,3675.0,1,0,1,1,2.1333333333333333,7.0,1277,16,4.0,5,2,23,93.87755102040816
austin,1804 Rinker Ranch Dr,78725,30.21903991699219,-97.6354522705078,1.98,2,True,True,True,True,False,False,Single Family,2,2017,255000.0,1,2020-03-30,3,2020,1,0,3,2,0,1,0,1,0,5000.0,1641.0,1,0,1,1,3.1666666666666665,3.0,1457,13,2.0,3,1,8,155.3930530164534
austin,5501 Gooding Dr,78744,30.17507362365723,-97.6934585571289,1.98,0,True,True,False,True,False,True,Single Family,0,2019,282226.0,1,2020-02-27,2,2020,8,0,0,0,1,0,0,0,0,5532.0,1413.0,1,0,1,1,2.9666666666666663,3.6666666666666665,1532,12,2.0,3,1,6,199.73531493276715
austin,15108 Stave Oak Ln,78724,30.252227783203125,-97.5805206298828,1.98,2,True,True,True,True,False,False,Single Family,2,2004,180000.0,3,2018-10-31,10,2018,24,0,4,2,0,0,0,0,0,6229.0,1326.0,1,0,1,1,2.1666666666666665,2.6666666666666665,1478,13,2.0,3,1,21,135.74660633484163
austin,2907 Crownover St,78725,30.227558135986328,-97.58959197998048,1.98,0,True,True,False,True,False,False,Single Family,0,2005,184900.0,2,2019-08-13,8,2019,24,0,5,1,0,0,0,1,0,4312.0,1203.0,1,0,1,1,1.8666666666666665,3.0,1457,13,2.0,3,1,20,153.6990856192851
austin,7004 Juneberry Cv,78750,30.37546539306641,-97.79732513427734,1.98,2,True,True,True,True,False,False,Single Family,2,1982,750000.0,2,2020-09-11,9,2020,110,0,4,2,1,0,0,1,0,8319.0,2922.0,1,0,1,1,2.833333333333333,7.0,1523,17,4.0,3,2,43,256.6735112936345
austin,11129 Rio Vista Dr,78726,30.43508529663086,-97.82764434814452,1.98,4,True,True,True,True,False,False,Single Family,4,1996,475000.0,1,2020-11-30,11,2020,38,1,3,2,5,3,0,0,0,7405.0,2428.0,1,0,1,1,1.4666666666666668,8.0,1275,15,3.0,3,2,29,195.6342668863262
austin,2420 Kale Dr,78725,30.213565826416016,-97.63741302490234,1.98,4,True,True,True,True,False,True,Single Family,4,2010,219000.0,1,2019-09-06,9,2019,24,0,4,2,1,3,0,0,0,10000.0,1256.0,1,0,1,1,3.3000000000000003,3.0,1457,13,2.0,3,1,15,174.36305732484075
pflugerville,14504 Lake Victor Dr,78660,30.431062698364247,-97.66323852539062,1.98,0,True,True,False,True,False,False,Single Family,0,2011,293300.0,6,2019-02-12,2,2019,33,0,3,1,0,0,0,0,0,6011.0,3047.0,1,0,1,1,1.3,2.6666666666666665,1063,14,3.0,3,2,14,96.25861503117821
austin,14311 Kincheloe St,78725,30.24378967285156,-97.5844955444336,1.98,0,True,True,False,True,False,False,Single Family,0,1988,229999.0,1,2019-05-13,5,2019,25,0,4,1,0,0,0,1,0,7274.0,1712.0,1,0,1,1,1.7000000000000002,3.0,1457,13,3.0,3,2,37,134.34521028037383
austin,9012 Spring Lake Dr,78750,30.43881416320801,-97.79473876953124,1.98,0,True,True,False,True,False,False,Single Family,0,1975,415000.0,1,2018-03-27,3,2018,40,0,0,1,0,0,0,0,0,13503.6,2234.0,0,1,1,1,0.9,8.666666666666666,1632,16,3.0,3,1,50,185.76544315129811
austin,6021 Signal Point,78724,30.29134750366211,-97.64522552490234,1.98,2,True,True,True,True,False,False,Single Family,2,1980,175000.0,2,2018-12-11,12,2018,17,0,2,2,0,0,0,0,0,4835.0,1315.0,1,0,1,2,3.1,3.6666666666666665,1085,11,2.0,3,1,45,133.07984790874525
austin,7100 Auburn Blaze Ln,78744,30.161739349365234,-97.71949768066406,1.98,0,True,True,False,True,False,True,Single Family,0,2016,389900.0,4,2019-07-01,7,2019,35,0,7,1,2,2,0,1,0,9626.0,3319.0,1,0,1,1,3.0666666666666664,3.6666666666666665,1532,12,3.0,5,2,9,117.47514311539621
austin,14205 Genesee Trl,78717,30.48785781860352,-97.7947006225586,2.21,2,True,True,True,True,False,False,Single Family,2,2013,536170.0,9,2018-08-17,8,2018,1,0,6,3,0,0,0,0,0,7230.0,3415.0,1,0,1,1,3.2999999999999994,7.666666666666668,1259,14,4.0,5,2,12,157.00439238653001
austin,14307 Kincheloe St,78725,30.24393081665039,-97.58484649658205,1.98,0,True,True,False,True,False,False,Single Family,0,1987,179900.0,1,2018-03-09,3,2018,24,0,5,1,0,0,0,0,0,5880.0,1587.0,1,0,1,1,1.7000000000000002,3.0,1457,13,2.0,4,1,38,113.35853812224323
austin,11150 Rio Vista Dr,78726,30.436147689819336,-97.82756805419922,1.98,2,True,True,True,True,False,False,Single Family,2,1994,519900.0,1,2020-09-21,9,2020,55,0,7,2,1,2,0,1,0,6054.0,2766.0,1,0,1,1,1.4,8.0,1275,15,3.0,4,2,31,187.96095444685466
austin,1628 Caballo Blanco Rd,78725,30.220149993896484,-97.63470458984376,1.98,0,True,True,False,True,False,False,Single Family,0,2019,341054.0,2,2019-12-31,12,2019,2,0,2,0,0,0,0,0,0,5000.0,2643.0,1,0,1,1,3.1333333333333333,3.0,1457,13,3.0,4,2,6,129.04048429814605
austin,7002 Anaqua Dr,78750,30.376209259033203,-97.7973175048828,1.98,2,False,True,True,True,False,False,Single Family,2,1984,428000.0,10,2019-10-31,10,2019,20,0,1,2,2,0,0,0,0,8537.0,2576.0,1,0,1,1,2.833333333333333,7.0,1523,17,3.0,3,2,41,166.14906832298138
austin,2903 Crownover St,78725,30.22736740112305,-97.58971405029295,1.98,2,True,True,True,True,False,True,Single Family,2,2005,185000.0,2,2018-12-07,12,2018,26,0,7,2,0,0,0,0,0,4312.0,1203.0,1,0,1,1,1.8666666666666665,3.0,1457,13,2.0,3,1,20,153.7822111388196
austin,11704 Running Brush Cv,78717,30.49654769897461,-97.7974853515625,2.21,0,True,True,False,True,False,False,Single Family,0,2008,415000.0,2,2018-08-09,8,2018,40,0,3,2,0,0,0,0,0,10236.0,3257.0,1,0,1,1,1.8666666666666665,8.333333333333334,1481,16,4.0,5,2,17,127.41786920478968
pflugerville,1112 Strickling Dr,78660,30.43280029296875,-97.6619644165039,1.98,2,True,True,True,True,False,False,Single Family,2,2013,299900.0,5,2020-10-08,10,2020,60,0,4,2,1,2,0,0,0,6141.0,2505.0,1,0,1,1,1.4,2.6666666666666665,1063,14,3.0,4,2,12,119.72055888223552
austin,6001 Elfen Way,78724,30.28300094604492,-97.6276397705078,1.98,0,True,True,False,True,False,False,Single Family,0,2009,249900.0,2,2018-06-07,6,2018,35,0,4,1,0,0,0,0,0,6098.0,1659.0,1,0,1,2,2.766666666666667,3.6666666666666665,1085,11,3.0,3,2,16,150.63291139240508
austin,4525 Esper Ln,78725,30.23840713500977,-97.57384490966795,1.98,2,True,True,True,True,False,False,Townhouse,2,2015,198000.0,4,2019-12-03,12,2019,20,0,4,2,1,1,0,0,0,6098.0,1321.0,1,0,1,1,2.2,3.0,1457,13,3.0,3,2,10,149.88644965934898
austin,11901 Garden Meadow Rd,78725,30.22450065612793,-97.62870025634766,1.98,0,False,True,False,True,False,False,Single Family,0,1995,179900.0,1,2018-06-15,6,2018,22,0,1,0,0,0,0,0,0,14374.8,1500.0,1,0,1,1,2.9,3.0,1457,13,2.0,3,1,30,119.93333333333334
austin,11558 Spicewood Pkwy APT 10,78750,30.444562911987305,-97.80654907226562,1.98,2,True,True,True,True,False,True,Condo,2,2000,355000.0,2,2020-09-10,9,2020,27,0,5,2,0,3,0,1,0,8520.0,1616.0,0,1,1,1,0.9333333333333332,8.666666666666666,1632,16,3.0,3,2,25,219.67821782178217
austin,13304 Bennington Ln,78753,30.40708923339844,-97.64974975585938,1.98,2,True,True,True,True,False,False,Single Family,2,1993,310000.0,1,2020-05-28,5,2020,28,0,3,2,0,0,0,0,0,6795.0,2046.0,0,2,1,1,1.0,3.0,1108,14,2.0,4,1,32,151.5151515151515
austin,14201 Kincheloe St,78725,30.24452972412109,-97.58594512939452,1.98,0,True,True,False,True,False,False,Single Family,0,1987,155000.0,1,2018-02-06,2,2018,12,0,4,1,0,0,0,0,0,6534.0,1411.0,1,0,1,1,1.6666666666666667,3.0,1457,13,2.0,3,1,38,109.85116938341602
austin,3409 Etheredge Dr,78725,30.232646942138672,-97.59120178222656,1.98,0,True,True,False,True,False,False,Single Family,0,2004,189000.0,1,2019-06-28,6,2019,36,0,0,1,0,0,0,0,0,4704.0,1892.0,1,0,1,1,1.7666666666666666,3.0,1457,13,3.0,3,2,21,99.89429175475686
austin,8004 Annalise Dr,78744,30.1763916015625,-97.69696044921876,1.98,2,True,True,True,True,False,False,Single Family,2,2016,339900.0,1,2020-07-09,7,2020,34,0,4,2,2,1,0,1,0,5488.0,2095.0,1,0,1,1,2.9,3.6666666666666665,1532,12,2.0,3,1,9,162.2434367541766
austin,10711 Twisted Elm Dr,78726,30.399572372436523,-97.84323120117188,1.98,2,True,True,True,True,False,True,Single Family,2,2016,515000.0,2,2020-07-30,7,2020,40,0,3,2,1,1,0,1,0,8363.0,2623.0,1,0,1,1,0.8666666666666667,7.0,1381,16,3.0,4,1,9,196.3400686237133
austin,11700 Running Brush Cv,78717,30.49635887145996,-97.797607421875,2.21,0,True,True,False,True,False,False,Single Family,0,2008,339900.0,1,2018-05-25,5,2018,33,0,3,2,0,0,0,0,0,9757.0,2192.0,1,0,1,1,1.9,8.333333333333334,1481,16,2.0,3,1,17,155.06386861313868
austin,11108 Sandstone Trl,78750,30.452693939208984,-97.81514739990234,2.21,2,True,True,True,True,False,False,Single Family,2,2001,650000.0,1,2020-03-12,3,2020,40,0,4,3,2,2,0,0,0,8319.0,3352.0,1,0,1,1,0.7000000000000001,7.666666666666668,1281,14,3.0,5,2,24,193.91408114558473
austin,5512 Catsby Ct,78724,30.25343894958496,-97.58031463623048,1.98,2,True,True,True,True,False,True,Single Family,2,2004,170000.0,4,2018-04-20,4,2018,18,0,3,2,0,0,0,0,0,10541.0,1268.0,1,0,1,1,2.2333333333333334,2.6666666666666665,1478,13,2.0,3,1,21,134.06940063091483
austin,5600 Signal Point,78724,30.288440704345703,-97.64766693115234,1.98,2,True,True,True,True,False,False,Single Family,2,1980,214500.0,3,2018-05-23,5,2018,23,0,3,2,0,0,0,0,0,6490.0,1306.0,1,0,1,2,3.233333333333333,3.6666666666666665,1085,11,2.0,3,1,45,164.24196018376722
austin,13308 Bennington Ln,78753,30.40733528137207,-97.64958953857422,1.98,0,True,True,False,True,False,False,Single Family,0,1993,275000.0,3,2018-01-27,1,2018,36,0,3,1,0,0,0,0,0,6272.0,2398.0,0,2,1,1,1.0,3.0,1108,14,3.0,4,2,32,114.6788990825688
austin,4515 Credo Ln,78725,30.23693084716797,-97.5716781616211,1.98,0,True,True,False,True,False,False,Condo,0,2010,174900.0,1,2018-03-28,3,2018,20,0,2,0,0,0,0,0,0,2613.0,1372.0,1,0,1,1,2.266666666666667,3.0,1457,13,3.0,3,1,15,127.47813411078717
austin,7005 Juneberry Cv,78750,30.37502479553223,-97.79694366455078,1.98,2,True,True,True,True,False,False,Single Family,2,1983,595000.0,2,2019-06-18,6,2019,34,0,5,2,0,0,0,0,0,9796.0,2448.0,1,0,1,1,2.8000000000000003,7.0,1523,17,2.0,4,2,42,243.05555555555554
austin,4517 Senda Ln #181,78725,30.23735237121582,-97.57234954833984,1.98,0,True,True,False,True,False,False,Single Family,0,2013,169900.0,1,2018-07-25,7,2018,12,0,4,0,0,0,0,0,0,5314.0,1250.0,1,0,1,1,2.266666666666667,3.0,1457,13,3.0,2,2,12,135.92
austin,12104 Montclair Bnd,78732,30.341896057128903,-97.90794372558594,1.98,0,True,True,False,True,False,True,Single Family,0,2009,625000.0,4,2019-07-23,7,2019,75,0,4,1,1,0,0,1,0,7797.0,3485.0,1,0,1,1,2.766666666666667,8.333333333333334,1533,17,4.0,5,2,16,179.3400286944046
austin,8917 Sun Shower Bnd,78724,30.27799987792969,-97.63249969482422,1.98,0,True,True,False,True,False,False,Single Family,0,2006,235000.0,6,2019-03-04,3,2019,1,0,4,1,0,0,0,0,0,9147.0,1526.0,1,0,1,2,2.966666666666667,3.6666666666666665,1085,11,2.0,3,1,19,153.99737876802098
austin,7313 Coit Rd,78744,30.15862846374512,-97.71546173095705,1.98,0,True,True,False,True,False,False,Single Family,0,2017,359900.0,3,2019-11-22,11,2019,37,0,3,1,0,0,0,0,0,6185.0,2124.0,1,0,1,1,3.2,3.6666666666666665,1532,12,2.0,3,1,8,169.44444444444446
austin,10300 Echoridge Dr,78750,30.431196212768555,-97.81404876708984,1.98,0,True,True,False,True,False,False,Single Family,0,1992,350000.0,8,2019-02-22,2,2019,22,0,4,1,0,0,0,0,0,7927.0,2965.0,0,1,1,1,1.6333333333333335,8.666666666666666,1632,16,3.0,4,2,33,118.04384485666104
austin,11616 Running Brush Ln,78717,30.49615478515625,-97.79851531982422,2.21,2,True,True,True,True,False,True,Single Family,2,2008,449000.0,1,2019-09-16,9,2019,1,0,0,3,2,0,0,0,0,7666.0,3205.0,1,0,1,1,1.9,8.333333333333334,1481,16,4.0,5,2,17,140.09360374414976
austin,5917 Florencia Ln,78724,30.290372848510746,-97.6427764892578,1.98,0,True,True,False,True,False,True,Single Family,0,2018,425900.0,1,2019-02-21,2,2019,10,0,2,0,0,0,0,0,0,5837.0,2403.0,1,0,1,2,2.966666666666667,3.6666666666666665,1085,11,3.0,3,1,7,177.2367873491469
austin,8104 Sebastapol Cv,78726,30.42441177368164,-97.8601531982422,1.98,0,True,True,False,True,False,False,Single Family,0,2001,595000.0,1,2019-11-08,11,2019,36,0,3,1,1,2,0,1,0,13068.0,3939.0,1,0,1,1,2.0,7.0,1277,16,4.0,5,2,24,151.05356689515105
austin,9205 Springwood Dr,78750,30.44091606140137,-97.79505920410156,1.98,4,True,True,True,True,True,False,Single Family,4,1976,625000.0,1,2020-12-22,12,2020,32,0,1,2,3,1,0,0,0,16117.2,2116.0,0,1,1,1,0.8666666666666667,8.666666666666666,1632,16,3.0,3,1,49,295.3686200378072
austin,14024 Abervil Trl,78717,30.48698425292969,-97.79361724853516,2.21,3,True,True,True,True,False,True,Single Family,3,2013,729000.0,1,2020-05-14,5,2020,38,0,3,3,1,0,0,1,0,10585.0,3409.0,1,0,1,1,3.266666666666667,7.666666666666668,1259,14,3.0,4,1,12,213.84570255206805
austin,4604 Fallenash Dr,78725,30.244930267333984,-97.58519744873048,1.98,0,True,True,False,True,False,False,Single Family,0,1987,199000.0,1,2018-12-14,12,2018,25,0,4,1,0,0,0,0,0,5183.0,1786.0,1,0,1,1,1.6666666666666667,3.0,1457,13,2.0,4,1,38,111.42217245240761
austin,7112 Sentry Path,78744,30.16120529174805,-97.71661376953124,1.98,0,True,True,False,True,False,False,Single Family,0,2018,365990.0,3,2019-03-15,3,2019,3,0,3,1,0,0,0,0,0,6969.0,2289.0,1,0,1,1,3.0666666666666664,3.6666666666666665,1532,12,3.0,3,1,7,159.89078200087374
austin,12000 Garden Gate Dr,78725,30.22534942626953,-97.62696838378906,1.98,1,False,True,True,True,False,False,Mobile / Manufactured,1,1983,220000.0,1,2020-08-31,8,2020,37,0,2,2,2,1,0,1,0,14810.4,1554.0,1,0,1,1,2.8000000000000003,3.0,1457,13,2.0,4,1,42,141.57014157014157
austin,5209 English Glade Dr,78724,30.27394294738769,-97.63169860839844,1.98,2,True,True,True,True,False,False,Single Family,2,2007,265000.0,4,2020-07-15,7,2020,68,0,4,2,2,1,0,0,0,5662.0,1704.0,1,0,1,2,3.1666666666666665,3.6666666666666665,1085,11,2.0,3,1,18,155.51643192488262
austin,11136 Rio Vista Dr,78726,30.4356632232666,-97.82742309570312,1.98,2,True,True,True,True,False,False,Single Family,2,1996,445000.0,4,2020-02-03,2,2020,11,0,5,2,2,2,0,1,0,7013.0,2852.0,1,0,1,1,1.4333333333333336,8.0,1275,15,3.0,3,2,29,156.03085553997195
pflugerville,1120 Strickling Dr,78660,30.432939529418945,-97.6622543334961,1.98,2,True,True,True,True,False,False,Single Family,2,2013,315000.0,1,2020-07-24,7,2020,70,0,2,4,0,0,0,0,0,6098.0,2505.0,1,0,1,1,1.4,2.6666666666666665,1063,14,2.5,4,2,12,125.74850299401197
austin,3006 Crownover St,78725,30.228349685668945,-97.58968353271484,1.98,0,True,True,False,True,False,False,Single Family,0,2005,95000.0,8,2018-11-20,11,2018,26,0,4,1,0,0,0,0,0,4486.0,2088.0,1,0,1,1,1.8333333333333333,3.0,1457,13,3.0,4,2,20,45.49808429118774
austin,15101 Chamberlain Ct,78724,30.25310707092285,-97.57906341552734,1.98,2,True,True,True,True,False,False,Single Family,2,2005,179900.0,2,2018-08-17,8,2018,12,0,3,2,0,0,0,0,0,9234.0,1206.0,1,0,1,1,2.2666666666666666,2.6666666666666665,1478,13,2.0,3,1,20,149.17081260364841
austin,7709 Jester Blvd,78750,30.386159896850582,-97.79894256591795,1.98,0,True,True,False,True,False,False,Single Family,0,1988,735000.0,3,2019-03-08,3,2019,1,0,3,1,0,0,0,0,0,13939.2,3119.0,1,0,1,1,3.1,7.0,1523,17,3.0,4,2,37,235.65245270920167
austin,15421 Staked Plains Loop,78717,30.495710372924805,-97.7973403930664,2.21,2,True,True,True,True,False,True,Single Family,2,2008,429900.0,1,2020-11-05,11,2020,27,0,4,3,3,3,0,0,0,8145.0,2191.0,1,0,1,1,1.9,8.333333333333334,1481,16,2.0,3,1,17,196.21177544500227
austin,5723 Sendero Hills Pkwy,78724,30.29021453857422,-97.64751434326172,1.98,1,True,True,True,True,False,False,Single Family,1,2003,66900.0,5,2018-07-31,7,2018,5,0,4,2,0,0,0,0,0,5793.0,1160.0,1,0,1,2,3.2,3.6666666666666665,1085,11,2.0,3,1,22,57.672413793103445
austin,7305 Van Ness St,78744,30.15879249572754,-97.71443939208984,1.98,2,True,True,True,True,False,False,Single Family,2,2018,385000.0,1,2020-06-15,6,2020,38,0,6,2,0,1,0,0,0,6926.0,2420.0,1,0,1,1,3.1666666666666665,3.6666666666666665,1532,12,3.0,4,2,7,159.0909090909091
austin,4606 Fallenash Dr,78725,30.24505043029785,-97.58512115478516,1.98,0,True,True,False,True,False,False,Single Family,0,1987,195000.0,1,2018-09-06,9,2018,29,0,3,1,0,0,0,0,0,5357.0,2094.0,1,0,1,1,1.7000000000000002,3.0,1457,13,3.0,4,2,38,93.12320916905445
austin,2321 Kale Dr,78725,30.214155197143555,-97.63653564453124,1.98,0,True,True,False,True,False,False,Single Family,0,2010,194900.0,2,2019-01-25,1,2019,16,0,3,1,0,0,0,0,0,4748.0,1096.0,1,0,1,1,3.233333333333333,3.0,1457,13,2.0,3,1,15,177.82846715328466
austin,13827 Camp Comfort Ln,78717,30.486351013183604,-97.78875732421876,2.21,4,True,True,True,True,True,True,Single Family,4,2016,459990.0,7,2020-11-20,11,2020,54,0,3,3,2,2,0,0,0,5662.0,2425.0,1,0,1,1,3.1333333333333333,7.666666666666668,1259,14,3.0,3,1,9,189.68659793814433
austin,5710 Signal Point,78724,30.28887176513672,-97.64627838134766,1.98,2,True,True,True,True,False,False,Single Family,2,1980,229900.0,1,2019-04-05,4,2019,37,0,1,2,0,0,0,0,0,4617.0,1320.0,1,0,1,2,3.1666666666666665,3.6666666666666665,1085,11,2.0,3,1,45,174.16666666666666
pflugerville,13800 Harrisglenn Dr,78660,30.41032409667969,-97.64022064208984,1.98,2,True,True,True,True,False,False,Single Family,2,2017,289000.0,1,2020-06-03,6,2020,44,0,3,2,1,1,0,1,0,5998.0,1780.0,0,2,1,1,1.2333333333333332,3.0,1108,14,2.0,4,1,8,162.35955056179776
austin,15201 Knighten Ln,78725,30.23963165283203,-97.5785903930664,1.98,2,True,True,True,True,False,False,Single Family,2,2014,230000.0,5,2019-12-02,12,2019,24,0,2,2,0,0,0,0,0,7535.0,1652.0,1,0,1,1,1.9666666666666668,3.0,1457,13,2.0,3,1,11,139.22518159806296
austin,7817 Bestride Bnd,78744,30.1521110534668,-97.71968841552734,1.98,3,True,True,True,True,False,False,Single Family,3,2019,439000.0,4,2020-08-03,8,2020,81,0,3,2,1,1,0,0,0,7405.0,2501.0,1,0,1,1,3.4333333333333336,3.6666666666666665,1532,12,3.0,4,1,6,175.5297880847661
austin,13016 Hymeadow Cir,78729,30.46333312988281,-97.78795623779295,2.21,0,True,True,False,True,False,False,Single Family,0,2012,375000.0,2,2018-04-18,4,2018,25,0,5,2,0,0,0,0,0,5837.0,2406.0,1,0,1,1,2.4,6.0,1228,14,2.0,3,1,13,155.86034912718205
austin,5716 Signal Point,78724,30.28889465332031,-97.64612579345705,1.98,2,True,True,True,True,False,False,Single Family,2,1980,225000.0,1,2020-06-10,6,2020,31,0,4,2,2,1,0,1,0,4617.0,1306.0,1,0,1,2,3.1666666666666665,3.6666666666666665,1085,11,2.0,3,1,45,172.28177641653906
austin,8110 Castle Peake Trl,78726,30.42425537109375,-97.8611068725586,1.98,0,True,True,False,True,False,False,Single Family,0,1989,342000.0,3,2019-09-13,9,2019,25,0,8,1,1,2,0,1,0,11325.6,1540.0,1,0,1,1,2.033333333333333,7.0,1277,16,2.0,3,1,36,222.07792207792207
austin,9209 Springwood Dr,78750,30.44031524658203,-97.79513549804688,1.98,0,True,True,False,True,False,False,Single Family,0,1995,550000.0,1,2019-12-02,12,2019,33,0,2,1,1,0,0,0,0,13503.6,2454.0,0,1,1,1,0.8666666666666667,8.666666666666666,1632,16,3.0,3,1,30,224.12387938060309
austin,12205 Wickline Way,78717,30.49216270446777,-97.79757690429688,2.21,0,True,True,False,True,False,False,Single Family,0,2016,360000.0,1,2018-06-29,6,2018,32,0,4,2,0,0,0,0,0,10890.0,1968.0,1,0,1,1,2.1,8.333333333333334,1481,16,2.0,3,1,9,182.9268292682927
austin,5405 Bonneville Bnd,78744,30.176950454711925,-97.69762420654295,1.98,2,True,True,True,True,False,False,Single Family,2,2015,284900.0,4,2019-07-29,7,2019,39,0,1,2,0,0,0,0,0,5488.0,1821.0,1,0,1,1,2.8666666666666667,3.6666666666666665,1532,12,2.0,3,1,10,156.45249862712797
austin,1307 Minnie Dr,78732,30.331302642822266,-97.92613983154295,1.98,2,False,True,True,True,True,True,Mobile / Manufactured,2,1986,279900.0,1,2018-05-11,5,2018,1,0,5,4,0,0,0,0,0,13068.0,1848.0,1,0,1,1,3.733333333333333,8.333333333333334,1533,17,2.0,2,1,39,151.46103896103895
austin,8107 Castle Peake Trl,78726,30.423587799072266,-97.86082458496094,1.98,2,True,True,True,True,False,False,Single Family,2,1989,413900.0,3,2020-04-29,4,2020,31,0,5,2,1,2,0,2,0,8712.0,2218.0,1,0,1,1,2.0,7.0,1277,16,2.0,3,1,36,186.60955816050495
austin,5700 Scout Blf,78731,30.35490226745605,-97.79246520996094,1.98,0,True,True,False,True,False,False,Townhouse,0,1983,415000.0,2,2019-07-19,7,2019,23,0,7,1,3,1,0,1,0,4181.0,1555.0,1,0,1,1,3.4,7.0,1177,16,2.0,3,1,42,266.88102893890675
austin,9402 Caracas Dr,78733,30.33530044555664,-97.85971069335938,1.98,0,True,True,False,True,False,False,Single Family,0,1994,585000.0,1,2018-10-20,10,2018,31,0,2,2,0,0,0,0,0,11761.2,2647.0,0,1,3,0,3.766666666666667,8.0,1373,14,3.0,4,2,31,221.00491122024934
austin,9804 Brandywine Cir,78750,30.434844970703125,-97.8052978515625,1.98,0,True,True,False,True,False,False,Single Family,0,1976,750000.0,2,2020-07-30,7,2020,76,0,3,1,1,1,0,2,0,14810.4,2373.0,0,1,1,1,1.1333333333333333,8.666666666666666,1632,16,3.0,4,1,49,316.05562579013906
austin,5305 Ingersoll Ln,78744,30.176738739013672,-97.6942367553711,1.98,0,True,True,False,True,False,False,Single Family,0,2015,279000.0,2,2018-06-21,6,2018,23,0,3,1,0,0,0,0,0,4399.0,1914.0,1,0,1,1,2.933333333333333,3.6666666666666665,1532,12,3.0,3,2,10,145.7680250783699
austin,2917 Caleb Dr,78725,30.22792625427246,-97.59042358398438,1.98,0,True,True,False,True,False,False,Single Family,0,2005,210000.0,1,2019-09-24,9,2019,1,0,3,1,0,0,0,0,0,4356.0,2088.0,1,0,1,1,1.8666666666666665,3.0,1457,13,3.0,4,2,20,100.57471264367815
austin,8108 Davis Mountain Pass,78726,30.42355918884277,-97.8604965209961,1.98,0,True,True,False,True,False,False,Single Family,0,1991,369000.0,3,2019-11-15,11,2019,21,0,4,1,1,1,0,3,0,7840.0,1861.0,1,0,1,1,1.9666666666666668,7.0,1277,16,2.0,3,1,34,198.2804943578721
austin,6309 Huntleigh Way,78725,30.282695770263672,-97.6613311767578,1.98,0,False,True,False,True,False,False,Single Family,0,1971,329900.0,3,2019-08-02,8,2019,48,0,2,1,0,0,0,0,0,9757.0,1567.0,1,0,1,1,2.5,3.6666666666666665,480,14,2.0,4,1,54,210.52967453733248
austin,4504 Halliday Ave,78725,30.240419387817383,-97.57878112792967,1.98,2,True,True,True,True,False,False,Single Family,2,2012,205000.0,1,2018-06-07,6,2018,6,0,1,2,0,0,0,0,0,7927.0,1344.0,1,0,1,1,1.933333333333333,3.0,1457,13,2.0,3,1,13,152.5297619047619
austin,9400 Caracas Dr,78733,30.335166931152344,-97.85942840576172,1.98,2,True,True,True,True,False,True,Single Family,2,1994,789000.0,1,2021-01-11,1,2021,39,0,5,2,0,0,0,0,0,12196.8,2410.0,0,1,3,0,3.733333333333333,8.0,1373,14,3.0,4,1,31,327.38589211618256
austin,5100 Ingersoll Ln,78744,30.17754554748535,-97.69530487060548,1.98,0,True,True,False,True,False,False,Single Family,0,2015,299999.0,1,2018-03-16,3,2018,28,0,4,1,0,0,0,0,0,6011.0,2068.0,1,0,1,1,2.9,3.6666666666666665,1532,12,3.0,4,2,10,145.06721470019343
austin,12505 Presque Cv,78726,30.42321586608887,-97.85885620117188,1.98,0,True,True,False,True,False,False,Single Family,0,2001,499800.0,1,2019-08-30,8,2019,1,0,3,1,0,0,0,2,0,11761.2,3304.0,1,0,1,1,1.9,7.0,1277,16,4.0,4,2,24,151.27118644067798
austin,5516 Nelson Oaks Dr,78724,30.27976036071777,-97.6302719116211,1.98,0,True,True,False,True,False,False,Single Family,0,2013,238999.0,1,2018-05-24,5,2018,36,0,4,1,0,0,0,0,0,5749.0,1670.0,1,0,1,2,2.9,3.6666666666666665,1085,11,2.0,3,1,12,143.1131736526946
austin,3503 Riva Ridge Rd,78746,30.33086395263672,-97.80318450927734,1.98,2,True,True,True,True,False,False,Single Family,2,1983,915000.0,2,2019-08-07,8,2019,32,0,3,2,1,0,0,0,0,14374.8,2665.0,0,1,1,0,2.05,9.0,1669,15,3.0,3,1,42,343.33958724202625
austin,10208 Peekston Dr,78726,30.431655883789062,-97.81967163085938,1.98,3,True,True,True,True,False,False,Single Family,3,2004,598000.0,3,2020-07-24,7,2020,72,0,4,2,0,2,0,0,0,8842.0,3559.0,1,0,1,1,1.4666666666666668,8.0,1275,15,4.0,4,2,21,168.02472604664231
austin,8000 Izetta Ln,78744,30.17706680297852,-97.69659423828124,1.98,2,True,True,True,True,False,False,Single Family,2,2015,305000.0,1,2019-06-07,6,2019,20,0,5,2,0,1,0,1,0,5445.0,1982.0,1,0,1,1,2.9333333333333336,3.6666666666666665,1532,12,3.0,3,2,10,153.88496468213924
austin,14324 Deaf Smith Blvd,78725,30.23415184020996,-97.59125518798828,1.98,2,True,True,True,True,False,True,Single Family,2,2015,254000.0,4,2020-08-13,8,2020,24,0,6,2,1,0,0,0,0,7026.0,2047.0,1,0,1,1,1.7,3.0,1457,13,2.0,4,1,10,124.08402540302882
austin,12504 Tierra Grande Trl,78732,30.34282684326172,-97.91471099853516,1.98,2,True,True,True,True,False,True,Single Family,2,2009,379000.0,5,2018-07-24,7,2018,20,0,3,2,0,0,0,0,0,8232.0,1943.0,1,0,1,1,2.8000000000000003,8.333333333333334,1533,17,2.0,4,1,16,195.0591868244982
austin,12209 Labrador Bay Ct,78732,30.344581604003903,-97.90592956542967,1.98,0,True,True,False,True,False,False,Single Family,0,2012,649900.0,1,2018-02-15,2,2018,40,0,3,1,0,0,0,0,0,9626.0,3689.0,1,0,1,1,2.6333333333333333,8.333333333333334,1533,17,4.0,4,2,13,176.17240444564922
austin,9307 Springwood Dr,78750,30.43920707702637,-97.79519653320312,1.98,0,True,True,False,True,False,False,Single Family,0,1972,525000.0,2,2019-04-12,4,2019,21,0,2,0,0,0,0,0,0,13068.0,3650.0,0,1,1,1,0.9333333333333332,8.666666666666666,1632,16,4.0,4,2,53,143.83561643835617
austin,7100 Rusty Fig Dr,78750,30.37553596496582,-97.79554748535156,1.98,2,True,True,True,True,False,False,Single Family,2,1985,359000.0,5,2020-08-10,8,2020,65,0,4,2,1,1,0,2,0,9931.0,2498.0,1,0,1,1,2.733333333333333,7.0,1523,17,3.0,4,2,40,143.71497197758205
austin,1603 Olympus Dr,78733,30.33751106262207,-97.8603973388672,1.98,0,True,True,False,True,False,True,Single Family,0,1990,714900.0,1,2019-06-28,6,2019,38,0,1,1,3,0,0,1,0,12196.8,2929.0,0,1,3,0,3.8666666666666663,8.0,1373,14,3.0,4,2,35,244.07647661317856
austin,12500 Tierra Grande Trl,78732,30.342981338500977,-97.91455841064452,1.98,0,True,True,False,True,True,True,Single Family,0,2010,474997.0,10,2019-05-20,5,2019,1,0,8,1,0,0,0,0,0,8276.0,3348.0,1,0,1,1,2.766666666666667,8.333333333333334,1533,17,4.0,5,2,15,141.8748506571087
austin,14201 Canyon Trl,78717,30.491443634033203,-97.7938003540039,2.21,0,True,True,False,True,False,False,Single Family,0,2009,335000.0,1,2019-08-20,8,2019,1,0,4,2,0,0,0,0,0,5662.0,1746.0,1,0,1,1,2.1,8.333333333333334,1481,16,2.0,3,1,16,191.86712485681556
austin,14207 Vandever St,78725,30.24240303039551,-97.58674621582033,1.98,0,True,True,False,True,False,False,Single Family,0,1986,199950.0,2,2020-01-21,1,2020,15,0,2,1,1,0,0,0,0,5532.0,1589.0,1,0,1,1,1.6000000000000003,3.0,1457,13,2.0,4,1,39,125.83385777218376
austin,5909 Alsace Trl,78724,30.29047966003418,-97.64567565917967,1.98,2,True,True,True,True,False,False,Single Family,2,2005,230000.0,4,2020-12-09,12,2020,22,0,3,2,0,1,0,0,0,4791.0,1190.0,1,0,1,2,3.1333333333333333,3.6666666666666665,1085,11,2.0,3,1,20,193.27731092436974
austin,7300 Colina Vista Loop #A,78750,30.39280128479004,-97.82899475097656,1.98,2,True,True,True,True,False,True,Condo,2,2013,405000.0,1,2020-05-13,5,2020,46,0,3,2,1,2,0,1,0,6368.0,2299.0,1,0,1,1,0.5333333333333333,7.0,1381,16,3.0,4,2,12,176.163549369291
austin,1601 Olympus Dr,78733,30.337270736694336,-97.8605499267578,1.98,0,True,True,False,True,False,False,Single Family,0,1994,559500.0,2,2019-07-09,7,2019,24,0,3,1,2,2,0,1,0,12196.8,2066.0,0,1,3,0,3.8666666666666663,8.0,1373,14,3.0,3,2,31,270.8131655372701
austin,15102 Chamberlain Ct,78724,30.253454208374023,-97.57862091064452,1.98,2,True,True,True,True,False,False,Single Family,2,2005,199000.0,8,2018-12-21,12,2018,1,0,2,2,0,0,0,0,0,6534.0,1704.0,1,0,1,1,2.333333333333333,2.6666666666666665,1478,13,3.0,3,2,20,116.78403755868544
austin,15509 Staked Plains Loop,78717,30.49484062194824,-97.79741668701172,2.21,2,True,True,True,True,False,False,Single Family,2,2008,379900.0,12,2019-02-28,2,2019,24,0,4,3,0,0,0,0,0,8276.0,2960.0,1,0,1,1,1.933333333333333,8.333333333333334,1481,16,3.0,4,2,17,128.34459459459458
austin,4506 Senda Ln,78725,30.23692321777344,-97.57284545898438,1.98,0,True,True,False,False,False,False,Single Family,0,2013,194000.0,3,2020-01-09,1,2020,22,0,2,1,0,0,0,0,0,5314.0,1250.0,1,0,1,1,2.233333333333333,3.0,1457,13,2.5,2,2,12,155.2
austin,9626 Dalewood Dr,78729,30.458351135253903,-97.78578186035156,2.21,0,True,True,False,True,False,True,Single Family,0,1997,330000.0,4,2019-11-14,11,2019,29,0,6,2,0,0,0,1,0,7000.0,2084.0,1,0,1,1,2.466666666666667,6.0,1228,14,3.0,3,2,28,158.34932821497122
austin,4404 Sojourner St,78725,30.24336814880371,-97.5872039794922,1.98,2,True,True,True,True,False,True,Single Family,2,1987,157000.0,1,2018-07-28,7,2018,3,0,8,2,0,0,0,0,0,5140.0,1419.0,1,0,1,1,1.6,3.0,1457,13,2.0,3,1,38,110.64129668780832
pflugerville,15004 Forum Ave,78660,30.44114112854004,-97.66085052490234,1.98,1,True,True,True,True,False,False,Single Family,1,2020,335269.0,1,2020-05-28,5,2020,18,0,2,2,0,0,0,0,0,4791.0,1753.0,1,0,1,1,1.5666666666666669,4.666666666666667,1242,15,3.0,3,2,5,191.25442099258413
austin,12609 Belcara Pl,78732,30.34814262390137,-97.91183471679688,1.98,2,True,True,True,True,False,False,Single Family,2,2007,535000.0,6,2020-02-24,2,2020,67,0,4,2,2,1,0,1,0,7405.0,3297.0,1,0,1,1,2.566666666666667,8.333333333333334,1533,17,4.0,4,2,18,162.26872914771005
austin,13408 Bullick Hollow Rd,78726,30.43041610717773,-97.87356567382812,1.98,0,False,True,False,True,False,False,Single Family,0,2006,399000.0,1,2018-05-09,5,2018,27,0,0,1,0,0,0,0,0,14810.4,1649.0,1,0,1,1,2.9,7.0,1277,16,2.0,3,1,19,241.9648271679806
austin,7912 Yokohama Ter,78744,30.14763641357422,-97.72132110595705,1.98,3,True,False,True,False,False,False,Single Family,3,2020,505847.0,4,2020-09-17,9,2020,16,0,7,4,2,0,0,0,1,8398.0,2766.0,1,0,1,1,3.6666666666666665,3.6666666666666665,1532,12,3.0,4,1,5,182.88033261026754
austin,10404 Loring Dr,78750,30.444908142089844,-97.80756378173828,1.98,2,True,True,True,True,False,False,Single Family,2,1984,574887.0,2,2020-02-13,2,2020,65,0,6,2,0,0,0,0,0,13939.2,2698.0,0,1,1,1,0.9666666666666668,8.666666666666666,1632,16,3.0,4,2,41,213.07894736842104
austin,5412 Ingersoll Ln,78744,30.17583656311035,-97.69471740722656,1.98,0,True,True,False,True,False,False,Single Family,0,2015,249000.0,2,2019-04-01,4,2019,22,0,4,1,0,0,0,0,0,4399.0,1448.0,1,0,1,1,2.9333333333333336,3.6666666666666665,1532,12,2.0,3,1,10,171.96132596685084
austin,11720 Prado Ranch Blvd,78725,30.21955871582031,-97.63343048095705,1.98,4,True,True,True,True,False,False,Single Family,4,2018,310000.0,2,2021-01-08,1,2021,27,0,2,2,3,1,0,0,0,5662.0,1370.0,1,0,1,1,3.1,3.0,1457,13,2.0,3,1,7,226.27737226277372
austin,11407 Costakes Dr,78750,30.444305419921875,-97.80763244628906,1.98,0,True,True,False,True,False,False,Single Family,0,1982,869999.0,4,2020-06-15,6,2020,29,0,3,1,0,0,0,0,0,16117.2,3542.0,0,1,1,1,1.0,8.666666666666666,1632,16,4.0,4,1,43,245.6236589497459
austin,6304 Lakewood Holw,78750,30.37455940246582,-97.78865051269533,1.98,2,True,True,True,True,False,False,Single Family,2,1980,475000.0,2,2020-12-14,12,2020,29,0,5,2,2,1,0,0,0,5052.0,1490.0,1,0,1,1,2.333333333333333,7.0,1523,17,2.0,3,1,45,318.79194630872485
austin,9512 Southwick Dr,78724,30.27737617492676,-97.62435150146484,1.98,2,True,True,True,True,False,True,Single Family,2,2014,239000.0,6,2018-01-26,1,2018,45,0,1,2,0,0,0,0,0,4617.0,1510.0,1,0,1,2,3.0,3.6666666666666665,1085,11,2.0,3,1,11,158.27814569536423
austin,4400 Belfield Ln,78725,30.23990821838379,-97.57988739013672,1.98,2,True,True,True,True,False,True,Single Family,2,2012,131860.0,1,2019-02-11,2,2019,25,0,4,2,0,0,0,0,0,8799.0,1598.0,1,0,1,1,1.9,3.0,1457,13,3.0,3,2,13,82.51564455569462
austin,7105 Cherry Beam Path,78744,30.164386749267567,-97.72289276123048,1.98,0,True,True,False,True,False,False,Single Family,0,2016,395000.0,2,2020-01-10,1,2020,1,0,4,1,1,0,0,0,0,6534.0,2515.0,1,0,1,1,3.0666666666666664,3.6666666666666665,1532,12,3.0,4,2,9,157.0576540755467
austin,11701 Garden Grove Dr,78725,30.224666595458984,-97.63119506835938,1.98,0,False,True,False,True,False,False,Mobile / Manufactured,0,2000,129900.0,1,2018-03-24,3,2018,25,0,3,0,0,0,0,0,0,14810.4,2304.0,1,0,1,1,2.966666666666667,3.0,1457,13,2.0,4,1,25,56.380208333333336
austin,12301 Edenvale Path,78732,30.342079162597656,-97.90857696533205,1.98,2,True,True,True,True,False,False,Single Family,2,2010,615000.0,4,2020-07-28,7,2020,52,0,2,2,1,1,0,0,0,8842.0,3458.0,1,0,1,1,2.766666666666667,8.333333333333334,1533,17,4.0,4,2,15,177.84846732215152
austin,9003 Bayshore Bnd UNIT 17,78726,30.43212890625,-97.84231567382812,1.98,3,True,True,True,True,False,True,Single Family,3,2017,557000.0,4,2020-05-29,5,2020,22,0,3,2,2,2,0,1,0,14810.4,3013.0,1,0,1,1,1.9666666666666668,7.0,1277,16,4.0,4,2,8,184.8655824759376
austin,4616 Esper Ln,78725,30.239591598510746,-97.57331848144533,1.98,0,True,True,False,True,False,False,Single Family,0,2015,200000.0,1,2020-03-23,3,2020,32,0,1,0,1,1,0,0,0,3571.0,1321.0,1,0,1,1,2.2,3.0,1457,13,3.0,3,2,10,151.4004542013626
austin,6621 Mesa Hollow Dr,78750,30.37924194335937,-97.78970336914062,1.98,0,True,True,False,True,False,True,Single Family,0,1994,450000.0,2,2019-03-15,3,2019,38,0,3,1,0,0,0,0,0,3397.0,2137.0,1,0,1,1,2.4666666666666663,7.0,1523,17,2.0,3,2,31,210.5755732335049
austin,7216 Cherry Beam Path,78744,30.163463592529297,-97.72412872314452,1.98,0,True,True,False,True,False,False,Single Family,0,2016,349000.0,1,2019-09-19,9,2019,38,0,3,1,1,2,0,1,0,6272.0,2073.0,1,0,1,1,3.0666666666666664,3.6666666666666665,1532,12,3.0,3,2,9,168.35504100337675
austin,9300 Springwood Dr,78750,30.439964294433604,-97.79568481445312,1.98,0,True,True,False,True,False,False,Single Family,0,1972,550000.0,2,2019-02-07,2,2019,36,0,4,1,0,0,0,0,0,12196.8,2581.0,0,1,1,1,0.8666666666666667,8.666666666666666,1632,16,2.0,4,1,53,213.09569934134058
austin,15313 Knighten Ln,78725,30.23905372619629,-97.5774383544922,1.98,0,True,True,False,True,False,False,Single Family,0,2016,217500.0,1,2019-08-29,8,2019,26,0,3,1,2,3,0,1,0,7230.0,1405.0,1,0,1,1,2.033333333333333,3.0,1457,13,2.0,3,1,9,154.80427046263344
austin,14020 Lake View Dr,78732,30.41588020324707,-97.8929443359375,1.98,2,True,True,True,True,False,True,Single Family,2,2006,865000.0,1,2020-07-23,7,2020,60,0,4,2,1,2,0,1,0,11761.2,2895.0,1,0,1,1,3.6666666666666665,7.0,1277,16,3.0,3,3,19,298.7910189982729
austin,1700 Canyon Edge Dr,78733,30.33909606933593,-97.8620834350586,1.98,0,True,True,False,True,False,False,Single Family,0,1994,565000.0,2,2018-07-03,7,2018,37,0,0,1,0,0,0,0,0,13503.6,2648.0,0,1,3,0,3.966666666666667,8.0,1373,14,3.0,4,2,31,213.36858006042297
pflugerville,1501 Maier Dr,78660,30.41034698486328,-97.63796997070312,1.98,3,True,False,True,False,False,False,Single Family,3,2019,336990.0,1,2019-05-10,5,2019,3,0,0,2,0,0,0,0,0,7461.0,2814.0,0,2,1,1,1.3,3.0,1108,14,3.0,4,2,6,119.7547974413646
austin,14101 Willow Tank Dr,78717,30.49070739746093,-97.79296112060548,2.21,0,True,True,False,True,False,False,Single Family,0,2009,219900.0,7,2018-07-20,7,2018,38,0,4,2,0,0,0,0,0,5662.0,1730.0,1,0,1,1,2.1,8.333333333333334,1481,16,3.0,3,2,16,127.10982658959537
austin,7720 Vista Mejor Dr,78744,30.15946960449219,-97.71558380126952,1.98,0,True,True,False,True,False,False,Single Family,0,2018,338900.0,4,2019-07-22,7,2019,40,0,3,0,1,2,0,0,0,5967.0,2177.0,1,0,1,1,3.1333333333333333,3.6666666666666665,1532,12,3.0,4,2,7,155.6729444189251
austin,9702 Grand Oak Dr,78750,30.420978546142567,-97.80438232421876,1.98,2,False,True,True,True,False,True,Single Family,2,1985,545000.0,9,2020-06-16,6,2020,39,0,3,2,0,1,0,0,0,12632.4,2338.0,1,0,1,1,1.7,9.0,1616,16,2.0,3,2,40,233.10521813515825
austin,2320 Elara Dr,78725,30.21480178833008,-97.63815307617188,1.98,2,True,True,True,True,False,False,Single Family,2,2013,161940.0,3,2019-06-14,6,2019,1,0,4,2,0,0,0,0,0,5227.0,1452.0,1,0,1,1,3.333333333333333,3.0,1457,13,2.0,3,1,12,111.52892561983471
austin,5121 Bantom Woods Bnd,78724,30.27275657653809,-97.63141632080078,1.98,4,True,True,True,True,False,False,Single Family,4,2008,133000.0,7,2019-04-03,4,2019,25,0,3,2,0,0,0,0,0,9147.0,1762.0,1,0,1,2,3.2,3.6666666666666665,1085,11,2.0,4,1,17,75.48240635641316
austin,1701 Chalk Rock Cv,78735,30.296897888183604,-97.8670654296875,1.98,0,True,False,False,False,False,False,Single Family,0,2007,885000.0,1,2019-07-25,7,2019,42,0,0,1,0,0,0,0,0,11325.6,3436.0,1,0,1,1,5.333333333333333,5.666666666666668,1332,16,3.0,4,2,18,257.56693830034925
austin,6906 Agave Cv,78750,30.37572479248047,-97.80010986328124,1.98,2,False,True,True,True,False,False,Single Family,2,1984,798500.0,4,2020-08-05,8,2020,75,0,4,2,1,0,0,0,0,9452.0,2927.0,1,0,1,1,3.0,7.0,1523,17,4.0,4,2,41,272.8049197130167
pflugerville,13906 Stripling Ln,78660,30.41358184814453,-97.6432876586914,1.98,2,True,True,True,True,False,True,Single Family,2,2017,249900.0,3,2019-01-04,1,2019,42,0,2,2,0,0,0,0,0,6211.0,1582.0,1,0,1,1,1.2,3.6666666666666665,1051,12,2.0,3,1,8,157.9646017699115
austin,11511 Brandon Parke Trl,78750,30.45035743713379,-97.81635284423828,2.21,2,True,True,True,True,False,False,Single Family,2,2002,400000.0,1,2018-03-01,3,2018,40,0,0,3,0,0,0,0,0,10149.0,3254.0,1,0,1,1,0.7999999999999999,7.666666666666668,1281,14,3.0,5,1,23,122.92562999385372
austin,2412 Kale Dr,78725,30.21393394470215,-97.63741302490234,1.98,1,True,True,True,True,False,False,Single Family,1,2009,217000.0,3,2018-06-26,6,2018,26,0,2,2,0,0,0,0,0,6141.0,1776.0,1,0,1,1,3.3000000000000003,3.0,1457,13,3.0,5,2,16,122.18468468468468
austin,1102 Lipan Trl,78733,30.33656883239746,-97.8708267211914,1.98,1,True,True,True,True,False,False,Mobile / Manufactured,1,2020,849900.0,1,2020-03-18,3,2020,8,0,5,2,0,1,0,0,0,11761.2,1850.0,0,1,3,0,4.033333333333333,8.0,1373,14,2.0,3,1,5,459.4054054054054
austin,5505 Lakemoore Dr,78731,30.365068435668945,-97.7858657836914,1.98,0,True,True,False,True,False,False,Single Family,0,1962,535000.0,2,2019-07-01,7,2019,15,0,4,2,1,0,0,1,0,16117.2,1707.0,1,0,1,1,1.8666666666666665,7.0,1483,16,2.0,3,1,63,313.41534856473345
pflugerville,1012 Strickling Dr,78660,30.43230438232422,-97.66094207763672,1.98,0,True,True,False,True,False,True,Single Family,0,2013,304000.0,1,2020-07-20,7,2020,1,0,8,1,0,0,0,0,0,6229.0,2486.0,1,0,1,1,1.4,2.6666666666666665,1063,14,3.0,3,2,12,122.28479485116654
austin,11512 Brandon Parke Trl,78750,30.45078468322754,-97.81719207763672,2.21,0,True,True,False,True,False,False,Single Family,0,2002,480000.0,1,2018-10-22,10,2018,23,0,2,2,0,0,0,0,0,9365.0,3282.0,1,0,1,1,0.8000000000000002,7.666666666666668,1281,14,3.0,4,2,23,146.25228519195613
austin,7205 Garnet Mill Ln,78744,30.16134452819824,-97.7205581665039,1.98,2,True,True,True,True,True,True,Single Family,2,2016,437500.0,2,2018-11-16,11,2018,40,0,5,2,0,0,0,0,0,8494.0,2275.0,1,0,1,1,3.1333333333333333,3.6666666666666665,1532,12,3.0,4,1,9,192.30769230769232
austin,5721 Alsace Trl,78724,30.28890419006348,-97.64698028564452,1.98,2,True,True,True,True,False,False,Single Family,2,1980,225000.0,3,2019-03-22,3,2019,21,0,2,2,0,0,0,0,0,5357.0,1320.0,1,0,1,2,3.2,3.6666666666666665,1085,11,2.0,3,1,45,170.45454545454547
pflugerville,14006 Stripling Ln,78660,30.41429901123047,-97.64269256591795,1.98,0,True,True,False,True,False,True,Single Family,0,2016,274900.0,1,2019-03-15,3,2019,23,0,2,2,0,0,0,0,0,12196.8,1745.0,1,0,1,1,1.2333333333333334,3.6666666666666665,1051,12,2.0,3,1,9,157.53581661891118
austin,10600 Beckwood Dr,78726,30.440948486328125,-97.8259048461914,1.98,2,True,True,True,True,True,False,Single Family,2,1991,549900.0,1,2020-11-24,11,2020,39,0,4,2,3,2,0,0,0,8712.0,2829.0,1,0,1,1,1.3,8.0,1275,15,3.0,4,2,34,194.3796394485684
austin,7001 Garnet Mill Ln,78744,30.16262626647949,-97.7193603515625,1.98,2,True,True,True,True,False,False,Single Family,2,2017,399900.0,1,2020-04-17,4,2020,23,0,2,1,2,3,0,1,0,9496.0,2519.0,1,0,1,1,3.0666666666666664,3.6666666666666665,1532,12,3.0,3,1,8,158.75347360063517
austin,3505 Native Dancer Cv,78746,30.33099365234375,-97.80457305908205,1.98,2,True,True,True,True,True,True,Single Family,2,1984,799000.0,5,2019-04-24,4,2019,68,0,9,2,0,0,0,0,0,11325.6,3693.0,0,1,1,0,2.0,9.0,1669,15,4.0,4,2,41,216.35526672082318
austin,14921 Arizona Oak Ln,78724,30.25202560424805,-97.58260345458984,1.98,0,True,True,False,True,False,False,Single Family,0,2003,119900.0,6,2018-09-05,9,2018,28,0,3,1,0,0,0,0,0,5749.0,1650.0,1,0,1,1,2.1,2.6666666666666665,1478,13,2.0,3,1,22,72.66666666666667
austin,5717 Alsace Trl,78724,30.28885841369629,-97.6471176147461,1.98,2,True,True,True,True,False,False,Single Family,2,1980,159000.0,4,2019-03-05,3,2019,3,0,3,2,0,0,0,0,0,5575.0,939.0,1,0,1,2,3.233333333333333,3.6666666666666665,1085,11,1.0,2,1,45,169.32907348242813
austin,14300 Tyburn Trl,78717,30.49062728881836,-97.78954315185548,2.21,2,True,True,True,True,True,False,Single Family,2,2015,550000.0,1,2020-11-23,11,2020,37,0,6,3,2,4,0,0,0,6882.0,3021.0,1,0,1,1,3.233333333333333,7.666666666666668,1259,14,3.0,4,2,10,182.05892088712346
austin,5626 Parade Rdg,78731,30.35277366638184,-97.7920913696289,1.98,0,True,True,False,True,False,False,Single Family,0,1985,550000.0,3,2019-03-25,3,2019,40,0,4,1,0,0,0,0,0,3911.0,2474.0,1,0,1,1,3.333333333333333,7.0,1177,16,3.0,3,2,40,222.3120452708165
austin,7921 Davis Mountain Pass,78726,30.42227935791016,-97.86302947998048,1.98,2,True,True,True,True,False,True,Single Family,2,2004,564900.0,3,2020-11-19,11,2020,114,0,9,3,3,4,0,0,0,7235.0,3422.0,1,0,1,1,2.033333333333333,7.0,1277,16,4.0,4,2,21,165.07890122735242
austin,10202 Lockleven Cv,78750,30.422138214111328,-97.79623413085938,1.98,0,True,True,False,True,False,True,Single Family,0,1984,525000.0,4,2019-08-09,8,2019,1,0,4,1,0,0,0,0,0,13503.6,2567.0,1,0,1,1,1.366666666666667,9.0,1616,16,4.0,4,2,41,204.5188936501753
austin,4604 Sojourner St,78725,30.24517250061035,-97.58602142333984,1.98,2,True,True,True,True,False,False,Single Family,2,1987,160000.0,3,2018-12-13,12,2018,21,0,2,2,0,0,0,0,0,5357.0,1419.0,1,0,1,1,1.6333333333333335,3.0,1457,13,2.0,3,1,38,112.7554615926709
austin,11109 Persimmon Gap Dr,78717,30.49170684814453,-97.79071807861328,2.21,4,True,True,True,True,False,False,Single Family,4,2008,315000.0,4,2018-05-19,5,2018,37,0,9,3,0,0,0,0,0,6229.0,2234.0,1,0,1,1,2.0333333333333337,8.333333333333334,1481,16,3.0,3,2,17,141.00268576544315
austin,1600 Caballo Blanco Rd,78725,30.221006393432614,-97.63418579101562,1.98,2,True,True,True,True,False,True,Single Family,2,2017,285000.0,2,2020-11-05,11,2020,2,0,5,2,0,0,0,0,0,6098.0,1491.0,1,0,1,1,3.1333333333333333,3.0,1457,13,2.0,3,1,8,191.14688128772636
pflugerville,13905 Cantata Ln,78660,30.4138126373291,-97.64387512207033,1.98,0,True,True,False,True,False,False,Single Family,0,2016,254990.0,1,2019-08-28,8,2019,1,0,4,1,1,2,0,0,0,12196.8,1349.0,1,0,1,1,1.2,3.6666666666666665,1051,12,2.0,3,1,9,189.02149740548555
austin,10602 Beckwood Dr,78726,30.441150665283203,-97.82589721679688,1.98,2,True,True,True,True,False,False,Single Family,2,1988,620000.0,6,2020-11-13,11,2020,81,0,5,2,2,1,0,0,0,9147.0,2710.0,1,0,1,1,1.3,8.0,1275,15,4.0,4,2,37,228.78228782287823
austin,216 Mediterra Point,78732,30.3430233001709,-97.9109878540039,1.98,2,True,True,True,True,False,True,Single Family,2,2008,495000.0,2,2018-03-31,3,2018,39,0,4,2,0,0,0,0,0,8363.0,2717.0,1,0,1,1,2.733333333333333,8.333333333333334,1533,17,3.0,4,2,17,182.18623481781376
austin,14920 Truman Oak Cv,78724,30.248918533325195,-97.58234405517578,1.98,0,True,True,False,True,False,False,Single Family,0,2013,215000.0,2,2018-11-10,11,2018,14,0,4,1,0,0,0,0,0,12632.4,1749.0,1,0,1,1,2.066666666666667,2.6666666666666665,1478,13,2.0,4,1,12,122.92738707833047
austin,11404 Fletcher Hall Ln,78717,30.498477935791016,-97.79045867919922,2.21,2,True,True,True,True,False,True,Single Family,2,2003,379800.0,3,2020-07-21,7,2020,82,0,4,3,0,0,0,1,0,6141.0,1970.0,1,0,1,1,1.7,8.333333333333334,1481,16,3.0,3,2,22,192.79187817258884
austin,5614 Parade Rdg,78731,30.35316467285156,-97.79170989990234,1.98,0,True,True,False,True,False,False,Townhouse,0,1995,399000.0,2,2018-11-30,11,2018,1,0,6,1,0,0,0,0,0,3920.0,1644.0,1,0,1,1,3.2999999999999994,7.0,1177,16,2.0,3,1,30,242.7007299270073
austin,8113 Davis Mountain Pass,78726,30.42353630065918,-97.85972595214844,1.98,4,True,True,True,True,False,False,Single Family,4,1989,540000.0,1,2020-12-21,12,2020,27,0,2,2,3,1,0,0,0,9147.0,2871.0,1,0,1,1,1.9333333333333336,7.0,1277,16,3.0,4,1,36,188.08777429467085
austin,9710 Grand Oak Dr,78750,30.42145347595215,-97.8054656982422,1.98,0,True,True,False,True,False,False,Single Family,0,1985,475000.0,2,2018-06-09,6,2018,14,0,1,1,0,0,0,0,0,13503.6,3114.0,1,0,1,1,1.7333333333333334,9.0,1616,16,3.0,4,2,40,152.5369299935774
austin,1103 Merlene Dr,78732,30.33176612854004,-97.92328643798828,1.98,0,False,True,False,True,False,False,Single Family,0,2015,689000.0,1,2019-10-11,10,2019,40,0,2,1,2,1,0,1,0,12196.8,3393.0,1,0,1,1,3.6,8.333333333333334,1533,17,4.0,4,2,10,203.06513409961687
austin,14900 Truman Oak Cv,78724,30.24901962280273,-97.5832748413086,1.98,0,True,True,False,True,False,False,Single Family,0,2013,207500.0,7,2020-04-10,4,2020,21,0,4,1,2,0,0,1,0,8712.0,1550.0,1,0,1,1,2.033333333333333,2.6666666666666665,1478,13,3.0,4,2,12,133.8709677419355
austin,4912 Bonneville Bnd,78744,30.17824745178223,-97.69378662109376,1.98,0,True,True,False,True,False,True,Single Family,0,2015,389900.0,4,2019-12-23,12,2019,39,0,4,1,1,1,0,0,0,6621.0,2953.0,1,0,1,1,2.933333333333333,3.6666666666666665,1532,12,3.0,4,2,10,132.0352184219438
austin,11125 Dodge Cattle Dr,78717,30.502241134643555,-97.7890853881836,2.21,2,True,True,True,True,False,True,Single Family,2,2005,325000.0,1,2018-10-09,10,2018,28,0,8,3,0,0,0,0,0,6403.0,2256.0,1,0,1,1,1.6,8.333333333333334,1481,16,3.0,3,2,20,144.06028368794327
austin,8101 Davis Mountain Pass,78726,30.42263412475586,-97.86044311523438,1.98,0,True,True,False,True,False,False,Single Family,0,1995,280000.0,4,2019-08-16,8,2019,1,0,4,1,0,1,0,3,0,7405.0,2415.0,1,0,1,1,1.9333333333333336,7.0,1277,16,2.0,4,1,30,115.94202898550725
austin,11117 Calavar Dr,78726,30.435869216918945,-97.82595825195312,1.98,2,True,True,True,True,True,False,Single Family,2,1993,480000.0,3,2020-06-15,6,2020,45,0,4,3,0,0,0,0,0,7840.0,2455.0,1,0,1,1,1.366666666666667,8.0,1275,15,3.0,5,2,32,195.5193482688391
austin,7925 Beacon Knob Way,78744,30.157695770263672,-97.71268463134766,1.98,2,True,True,True,True,False,False,Single Family,2,2018,405000.0,1,2020-09-09,9,2020,37,0,4,2,2,1,0,0,0,6011.0,2766.0,1,0,1,1,3.1666666666666665,3.6666666666666665,1532,12,4.0,4,2,7,146.42082429501085
austin,5608 Parade Rdg,78731,30.35307693481445,-97.79139709472656,1.98,0,True,True,False,True,False,False,Townhouse,0,1995,409000.0,1,2019-08-01,8,2019,1,0,8,1,1,1,0,0,0,3920.0,1456.0,1,0,1,1,3.2999999999999994,7.0,1177,16,2.0,2,1,30,280.9065934065934
austin,8023 Davis Mountain Pass,78726,30.42250633239746,-97.86056518554688,1.98,0,True,True,False,True,False,False,Single Family,0,1992,265000.0,1,2020-09-22,9,2020,1,0,0,1,0,0,0,0,0,7361.0,2051.0,1,0,1,1,1.9333333333333336,7.0,1277,16,2.0,3,1,33,129.20526572403705
austin,5715 Sendero Hills Pkwy,78724,30.28982925415039,-97.64745330810548,1.98,2,True,True,True,True,False,False,Single Family,2,2004,205000.0,5,2018-02-22,2,2018,18,0,2,3,0,0,0,0,0,5052.0,1200.0,1,0,1,2,3.2,3.6666666666666665,1085,11,2.0,3,1,21,170.83333333333334
austin,208 Mediterra Point,78732,30.34336280822754,-97.91098022460938,1.98,2,True,True,True,True,False,False,Single Family,2,2008,425000.0,6,2019-03-05,3,2019,27,0,4,2,0,0,0,0,0,7971.0,3323.0,1,0,1,1,2.7,8.333333333333334,1533,17,3.0,4,2,17,127.896479085164
austin,3408 Crownover St,78725,30.23153114318848,-97.5876693725586,1.98,1,True,True,True,True,False,True,Single Family,1,2004,175000.0,3,2020-08-14,8,2020,54,0,4,2,1,1,0,0,0,4626.0,1278.0,1,0,1,1,1.8333333333333333,3.0,1457,13,2.0,3,1,21,136.93270735524257
austin,14506 Highsmith St,78725,30.23805046081543,-97.58654022216795,1.98,2,True,True,True,True,False,False,Single Family,2,1998,175000.0,3,2018-10-17,10,2018,31,0,3,2,0,0,0,0,0,5062.0,1662.0,1,0,1,1,1.7,3.0,1457,13,2.0,3,1,27,105.29482551143201
pflugerville,14704 Lake Victor Dr,78660,30.43283271789551,-97.66364288330078,1.98,0,True,True,False,True,False,True,Single Family,0,2013,300000.0,1,2020-01-30,1,2020,28,0,7,1,1,1,0,1,0,6577.0,2413.0,1,0,1,1,1.3,2.6666666666666665,1063,14,3.0,3,2,12,124.32656444260257
austin,6106 Gardenridge Holw,78750,30.37151336669922,-97.7883071899414,1.98,0,True,True,False,True,False,False,Single Family,0,1980,350000.0,1,2018-06-14,6,2018,27,0,5,1,0,0,0,0,0,5662.0,1799.0,1,0,1,1,2.3000000000000003,7.0,1523,17,2.0,3,1,45,194.55252918287937
austin,8021 Davis Mountain Pass,78726,30.42238044738769,-97.86068725585938,1.98,0,True,True,False,True,False,False,Single Family,0,1993,389900.0,1,2018-05-18,5,2018,23,0,1,1,0,0,0,0,0,7710.0,2761.0,1,0,1,1,1.9333333333333336,7.0,1277,16,3.0,3,2,32,141.216950380297
austin,12313 Mediterra Pl,78732,30.34079170227051,-97.91032409667967,1.98,2,True,True,True,True,False,True,Single Family,2,2011,575000.0,2,2020-05-22,5,2020,39,0,4,2,2,2,0,2,0,9931.0,2972.0,1,0,1,1,2.833333333333333,8.333333333333334,1533,17,4.0,4,2,14,193.47240915208613
austin,10607 Marbury Ct,78726,30.441387176513672,-97.82626342773438,1.98,2,True,True,True,True,False,False,Single Family,2,1991,510000.0,2,2020-07-22,7,2020,67,0,3,3,1,2,0,2,0,9452.0,2580.0,1,0,1,1,1.3,8.0,1275,15,2.0,4,1,34,197.67441860465115
austin,11700 Saddle Rock Dr,78725,30.22078895568848,-97.63388061523438,1.98,0,True,True,False,True,False,False,Single Family,0,2017,255000.0,1,2019-06-04,6,2019,29,0,5,1,0,0,0,0,0,6272.0,1496.0,1,0,1,1,3.1333333333333333,3.0,1457,13,2.0,3,1,8,170.45454545454547
pflugerville,14005 Stripling Ln #25,78660,30.41394233703613,-97.64264678955078,1.98,0,True,True,False,True,False,False,Single Family,0,2016,289500.0,1,2018-06-15,6,2018,1,0,2,1,0,0,0,0,0,12196.8,2112.0,1,0,1,1,1.2333333333333334,3.6666666666666665,1051,12,3.0,4,2,9,137.07386363636363
austin,5607 Courtyard Dr,78731,30.353260040283203,-97.79042053222656,1.98,2,True,True,True,True,False,False,Single Family,2,1991,650000.0,2,2019-05-13,5,2019,40,0,4,2,0,0,0,0,0,9365.0,2519.0,1,0,1,1,3.2999999999999994,7.0,1177,16,3.0,3,2,34,258.0389043271139
austin,5504 Gooding Dr,78744,30.17500305175781,-97.6939926147461,1.98,2,True,True,True,True,False,False,Single Family,2,2017,350000.0,1,2020-10-22,10,2020,68,0,4,2,2,0,0,0,0,5662.0,2360.0,1,0,1,1,2.9666666666666663,3.6666666666666665,1532,12,3.0,3,2,8,148.3050847457627
austin,9012 Southwick Dr,78724,30.279062271118164,-97.62841033935548,1.98,0,True,True,False,True,False,False,Single Family,0,2012,205000.0,1,2018-05-30,5,2018,30,0,4,1,0,0,0,0,0,5227.0,1221.0,1,0,1,2,2.9,3.6666666666666665,1085,11,2.0,3,1,13,167.8951678951679
austin,2416 Kale Dr,78725,30.21377182006836,-97.63745880126952,1.98,0,True,True,False,True,False,False,Single Family,0,2010,215000.0,1,2019-07-19,7,2019,13,0,3,1,0,0,0,0,0,8189.0,1420.0,1,0,1,1,3.3000000000000003,3.0,1457,13,2.0,3,1,15,151.40845070422534
austin,12407 Waterton Parke Cv,78726,30.42037010192871,-97.86131286621094,1.98,0,True,True,False,True,False,False,Single Family,0,1989,242200.0,13,2020-01-24,1,2020,34,0,3,2,1,0,0,1,0,13068.0,3165.0,1,0,1,1,1.9333333333333336,7.0,1277,16,3.0,5,2,36,76.52448657187993
austin,12701 Tierra Grande Trl,78732,30.34372329711914,-97.91596221923828,1.98,2,True,True,True,True,False,True,Single Family,2,2008,395000.0,5,2018-03-26,3,2018,1,0,6,2,0,0,0,0,0,7492.0,2045.0,1,0,1,1,2.8000000000000003,8.333333333333334,1533,17,2.0,3,1,17,193.15403422982885
austin,6004 Gardenridge Holw,78750,30.371234893798828,-97.78775787353516,1.98,0,True,True,False,True,False,False,Single Family,0,1981,325000.0,2,2019-04-23,4,2019,27,0,2,2,0,0,0,0,0,4573.0,1359.0,1,0,1,1,2.2666666666666666,7.0,1523,17,2.0,2,1,44,239.14643119941132
austin,2403 Saratoga Dr,78733,30.348594665527344,-97.86572265625,1.98,0,True,True,False,True,False,False,Single Family,0,1962,485000.0,1,2019-04-10,4,2019,22,0,3,1,0,0,0,0,0,14810.4,1780.0,0,1,3,0,4.566666666666666,8.0,1373,14,3.0,3,1,63,272.4719101123595
pflugerville,13905 Stripling Ln #19,78660,30.413331985473643,-97.64306640625,1.98,0,True,True,False,True,False,False,Single Family,0,2016,309900.0,2,2019-07-02,7,2019,27,0,1,1,0,0,0,0,0,12196.8,2432.0,1,0,1,1,1.2,3.6666666666666665,1051,12,3.0,4,2,9,127.42598684210526
austin,12500 Mcloughlin Point,78726,30.42136383056641,-97.86011505126952,1.98,2,True,True,True,True,True,False,Single Family,2,1993,479900.0,5,2019-06-21,6,2019,1,0,7,2,0,0,0,0,0,12196.8,3328.0,1,0,1,1,1.8333333333333333,7.0,1277,16,4.0,5,2,32,144.20072115384616
austin,9304 Cedar Forest Dr,78750,30.43993759155273,-97.7968292236328,1.98,0,True,True,False,True,False,False,Single Family,0,1978,710000.0,1,2019-11-06,11,2019,1,0,3,1,1,0,0,0,0,15681.6,3451.0,0,1,1,1,0.9,8.666666666666666,1632,16,3.0,4,2,47,205.73746740075342
austin,1925 Wimberly Ln,78735,30.293842315673828,-97.87725067138672,1.98,0,True,True,False,True,False,False,Single Family,0,2005,899000.0,4,2019-02-13,2,2019,28,0,0,1,0,0,0,0,0,14374.8,3294.0,1,0,1,1,5.7333333333333325,5.666666666666668,1332,16,3.0,4,1,20,272.9204614450516
austin,5620 Toscana Ave,78724,30.287628173828125,-97.64517974853516,1.98,2,True,True,True,True,False,False,Single Family,2,2006,269990.0,4,2018-10-10,10,2018,1,0,2,2,0,0,0,0,0,5662.0,1511.0,1,0,1,2,3.1333333333333333,3.6666666666666665,1085,11,3.0,3,2,19,178.68299139642622
austin,10905 Dodge Cattle Dr,78717,30.503122329711925,-97.7863998413086,2.21,2,True,True,True,True,False,True,Single Family,2,2005,384900.0,2,2020-08-11,8,2020,102,0,4,3,1,1,1,1,0,5662.0,1884.0,1,0,1,1,1.6,8.333333333333334,1481,16,3.0,3,2,20,204.29936305732485
pflugerville,13903 Stripling Ln #18,78660,30.413265228271484,-97.64312744140624,1.98,2,True,True,True,True,False,False,Condo,2,2016,265000.0,1,2020-11-29,11,2020,36,0,3,2,3,0,0,0,1,12196.8,1359.0,1,0,1,1,1.2,3.6666666666666665,1051,12,2.0,3,1,9,194.99632082413538
austin,7949 Castle Peake Trl,78726,30.422962188720703,-97.86251068115234,1.98,2,True,True,True,True,False,False,Single Family,2,2000,410000.0,8,2018-02-24,2,2018,28,0,0,2,0,0,0,0,0,7666.0,3274.0,1,0,1,1,2.033333333333333,7.0,1277,16,4.0,4,2,25,125.22907758094074
austin,7312 Van Ness St,78744,30.15859031677246,-97.71491241455078,1.98,2,True,True,True,True,False,False,Single Family,2,2017,320000.0,2,2020-06-08,6,2020,70,0,2,2,1,2,0,0,0,6534.0,1754.0,1,0,1,1,3.1666666666666665,3.6666666666666665,1532,12,2.0,3,1,8,182.44013683010263
austin,12301 Labrador Bay Ct,78732,30.344465255737305,-97.90643310546876,1.98,2,True,True,True,True,True,True,Single Family,2,2012,595000.0,4,2018-08-10,8,2018,1,0,4,2,0,0,0,0,0,14810.4,3029.0,1,0,1,1,2.6666666666666665,8.333333333333334,1533,17,4.0,4,1,13,196.43446682073292
austin,4603 Halliday Ave,78725,30.24086570739746,-97.57785034179688,1.98,0,True,True,False,True,False,False,Single Family,0,2009,209000.0,2,2020-05-29,5,2020,54,0,4,0,1,0,0,0,0,5880.0,1236.0,1,0,1,1,2.0,3.0,1457,13,2.0,4,1,16,169.0938511326861
austin,10614 Marbury Ct,78726,30.44204330444336,-97.82595825195312,1.98,2,True,True,True,True,False,False,Single Family,2,1990,445000.0,2,2018-04-06,4,2018,4,0,7,2,0,0,0,0,0,8441.0,3346.0,1,0,1,1,1.2666666666666666,8.0,1275,15,4.0,5,2,35,132.9946204423192
austin,6902 Rusty Fig Dr,78750,30.37464714050293,-97.79686737060548,1.98,0,True,True,False,True,False,True,Single Family,0,1982,609995.0,2,2019-12-23,12,2019,1,0,9,1,0,0,0,0,0,10544.0,2728.0,1,0,1,1,2.8000000000000003,7.0,1523,17,3.0,4,2,43,223.60520527859236
austin,9413 China Rose Dr,78724,30.278547286987305,-97.62421417236328,1.98,0,True,True,False,True,False,False,Single Family,0,2014,240000.0,5,2018-10-02,10,2018,38,0,0,1,0,0,0,0,0,6229.0,2491.0,1,0,1,2,2.9333333333333336,3.6666666666666665,1085,11,3.0,5,2,11,96.34684865515857
austin,8012 Davis Mountain Pass,78726,30.422569274902344,-97.86126708984376,1.98,2,True,True,True,True,False,False,Single Family,2,1993,475000.0,2,2020-06-12,6,2020,40,0,4,2,1,1,0,2,0,6625.0,2495.0,1,0,1,1,1.9333333333333336,7.0,1277,16,2.0,4,1,32,190.3807615230461
austin,11912 Montclair Bnd,78732,30.34182167053223,-97.91043853759766,1.98,0,True,True,False,True,False,False,Single Family,0,2008,574900.0,1,2019-11-18,11,2019,31,0,3,1,1,3,0,0,0,7753.0,3358.0,1,0,1,1,2.766666666666667,8.333333333333334,1533,17,4.0,4,2,17,171.20309708159618
austin,15308 Staked Plains Loop,78717,30.497051239013672,-97.79515075683594,2.21,0,True,True,False,True,False,False,Single Family,0,2006,212500.0,1,2020-06-30,6,2020,1,0,0,2,0,0,0,0,0,6011.0,1985.0,1,0,1,1,1.7333333333333334,8.333333333333334,1481,16,2.5,3,2,19,107.0528967254408
austin,9024 Sun Shower Bnd,78724,30.276824951171875,-97.63174438476562,1.98,2,True,True,True,True,False,False,Single Family,2,2007,240000.0,1,2018-04-02,4,2018,34,0,3,2,0,0,0,0,0,6272.0,1761.0,1,0,1,2,3.033333333333333,3.6666666666666665,1085,11,2.0,4,1,18,136.2862010221465
austin,15120 Arizona Oak Ln,78724,30.25141143798828,-97.58064270019533,1.98,0,True,True,False,True,False,False,Single Family,0,2003,175000.0,1,2018-08-27,8,2018,22,0,6,1,0,0,0,0,0,6882.0,1326.0,1,0,1,1,2.2,2.6666666666666665,1478,13,2.0,3,1,22,131.97586726998492
austin,10304 Holme Lacey Ln,78750,30.430532455444336,-97.81375122070312,1.98,0,True,True,False,True,False,False,Single Family,0,1984,379950.0,7,2020-02-24,2,2020,25,0,1,1,1,1,0,0,0,13939.2,2846.0,0,1,1,1,1.6000000000000003,8.666666666666666,1632,16,3.0,4,2,41,133.50316233309908
austin,10046 Circleview Dr,78733,30.29961585998535,-97.89527893066406,1.98,0,True,True,False,True,False,False,Single Family,0,1987,775000.0,2,2018-07-16,7,2018,30,0,3,2,0,0,0,0,0,13939.2,3076.0,0,1,3,0,2.333333333333333,9.333333333333334,1360,14,3.0,4,1,38,251.95058517555267
austin,6300 Sprucewood Cv,78731,30.35880279541016,-97.7865982055664,1.98,0,False,True,False,True,False,False,Single Family,0,1985,399000.0,10,2018-05-03,5,2018,28,0,2,1,0,0,0,0,0,14374.8,2068.0,1,0,1,1,1.9,7.0,1483,16,2.0,3,2,40,192.94003868471953
austin,15529 Staked Plains Loop,78717,30.49406623840332,-97.7969207763672,2.21,2,True,True,True,True,False,True,Single Family,2,2007,379000.0,3,2019-05-14,5,2019,1,0,3,3,0,0,0,0,0,8712.0,2708.0,1,0,1,1,1.9666666666666663,8.333333333333334,1481,16,3.0,4,2,18,139.95568685376662
austin,4701 Sojourner St,78725,30.245859146118164,-97.58499145507812,1.98,2,True,True,True,True,False,False,Single Family,2,1989,221000.0,1,2020-06-11,6,2020,35,0,3,2,0,0,0,0,0,6446.0,1895.0,1,0,1,1,1.7,3.0,1457,13,3.0,4,1,36,116.62269129287598
austin,8009 High Hollow Dr,78750,30.39308738708496,-97.8046646118164,1.98,0,True,True,False,True,False,True,Single Family,0,1996,650000.0,1,2019-07-01,7,2019,1,0,3,1,0,0,0,1,0,14374.8,2898.0,1,0,1,1,3.633333333333333,7.0,1523,17,3.0,3,2,29,224.29261559696343
austin,7305 Coit Rd,78744,30.158916473388672,-97.71544647216795,1.98,4,True,True,True,True,True,False,Single Family,4,2017,390000.0,1,2020-12-04,12,2020,26,0,3,2,2,4,0,0,1,6141.0,1916.0,1,0,1,1,3.2,3.6666666666666665,1532,12,2.0,3,1,8,203.5490605427975
pflugerville,1317 Maier Dr,78660,30.411134719848643,-97.63988494873048,1.98,2,True,False,True,False,False,False,Single Family,2,2019,311250.0,2,2019-06-10,6,2019,24,0,0,2,0,0,0,0,0,8529.0,2193.0,1,0,1,1,1.2666666666666666,3.6666666666666665,1051,12,3.0,4,2,6,141.92886456908346
austin,12205 Waterton Parke Cir,78726,30.421497344970703,-97.85620880126952,1.98,4,True,True,True,True,False,False,Single Family,4,1999,475000.0,4,2020-11-13,11,2020,28,0,3,2,0,0,0,0,0,9278.0,2538.0,1,0,1,1,1.7,7.0,1277,16,2.0,3,1,26,187.1552403467297
austin,15105 Stave Oak Ln,78724,30.25190353393555,-97.58092498779295,1.98,2,True,True,True,True,False,False,Single Family,2,2003,219900.0,4,2019-09-23,9,2019,1,0,5,2,1,0,0,0,0,6098.0,1952.0,1,0,1,1,2.1666666666666665,2.6666666666666665,1478,13,3.0,4,2,22,112.65368852459017
austin,12310 Bent Cedar Cv,78750,30.4632625579834,-97.81148529052734,2.21,2,False,True,True,True,False,False,Single Family,2,1980,175000.0,5,2018-09-20,9,2018,35,0,3,3,0,0,0,0,0,13503.6,1723.0,1,0,1,1,0.7000000000000001,7.666666666666668,1281,14,2.0,3,1,45,101.56703424260012
austin,11307 Nutwood Cv,78726,30.44259262084961,-97.82620239257812,1.98,2,True,True,True,True,False,True,Single Family,2,1989,489000.0,1,2020-01-30,1,2020,40,0,4,2,2,1,0,0,0,10062.0,2635.0,1,0,1,1,1.3,8.0,1275,15,4.0,5,2,36,185.5787476280835
austin,8005 High Hollow Dr,78750,30.39285659790039,-97.80449676513672,1.98,2,False,True,True,True,False,False,Single Family,2,1996,765000.0,5,2020-08-11,8,2020,39,0,4,2,3,2,0,1,0,10628.0,3574.0,1,0,1,1,3.6,7.0,1523,17,4.0,4,2,29,214.0458869613878
austin,12201 Klondike Rush Point,78726,30.41982650756836,-97.85623168945312,1.98,2,True,True,True,True,False,False,Single Family,2,1996,419900.0,3,2018-08-17,8,2018,31,0,6,2,0,0,0,0,0,13068.0,2622.0,1,0,1,1,1.6333333333333335,7.0,1277,16,3.0,4,2,29,160.14492753623188
pflugerville,14007 Madrigal Ln,78660,30.41496086120605,-97.64429473876952,1.98,2,True,True,True,True,False,False,Single Family,2,2017,289900.0,1,2020-09-16,9,2020,31,0,7,2,2,3,0,0,0,5401.0,1580.0,1,0,1,1,1.2,3.6666666666666665,1051,12,2.0,3,1,8,183.48101265822785
austin,4723 Castleman Dr,78725,30.246564865112305,-97.58329010009766,1.98,2,True,True,True,True,False,False,Single Family,2,1996,52500.0,5,2020-12-18,12,2020,49,0,2,2,0,1,0,0,0,5662.0,1405.0,1,0,1,1,1.7666666666666666,3.0,1457,13,2.0,3,1,29,37.36654804270463
austin,7205 Waldon Dr APT 209,78750,30.37234878540039,-97.78695678710938,1.98,0,True,True,False,True,False,False,Condo,0,1983,258000.0,1,2018-04-18,4,2018,1,0,3,1,0,0,0,0,0,5096.0,1096.0,1,0,1,1,2.2,7.0,1523,17,2.0,2,1,42,235.4014598540146
austin,6013 Seville Dr,78724,30.291004180908203,-97.64351654052734,1.98,3,True,True,True,True,False,True,Single Family,3,2017,412900.0,5,2020-02-05,2,2020,1,0,2,3,0,0,0,0,0,6490.0,2837.0,1,0,1,2,3.0,3.6666666666666665,1085,11,3.0,4,2,8,145.54106450475854
austin,9305 Spring Hollow Dr,78750,30.44138145446777,-97.7961654663086,1.98,2,True,True,True,True,False,False,Single Family,2,1976,768000.0,3,2020-07-07,7,2020,39,0,3,2,3,0,0,1,0,13939.2,2826.0,0,1,1,1,0.9,8.666666666666666,1632,16,3.0,4,1,49,271.76220806794055
austin,3502 Batson Dr,78725,30.23150062561035,-97.5855484008789,1.98,2,True,False,True,False,False,False,Single Family,2,2020,263990.0,2,2020-10-21,10,2020,3,0,0,2,0,0,0,0,0,7405.0,1863.0,1,0,1,1,1.8333333333333333,3.0,1457,13,2.0,4,1,5,141.70155662909286
austin,8001 High Hollow Dr,78750,30.392656326293945,-97.80437469482422,1.98,0,True,True,False,True,False,False,Single Family,0,1995,550000.0,6,2018-08-14,8,2018,57,0,3,1,0,0,0,0,0,10006.0,2489.0,1,0,1,1,3.5666666666666664,7.0,1523,17,3.0,4,1,30,220.97227802330252
austin,11513 Gold Cave Dr,78717,30.49637031555176,-97.79571533203124,2.21,0,True,True,False,True,False,False,Single Family,0,2007,339900.0,2,2019-08-13,8,2019,1,0,4,2,2,2,0,0,0,6534.0,2030.0,1,0,1,1,1.8333333333333333,8.333333333333334,1481,16,3.0,3,2,18,167.4384236453202
austin,7116 Lombard Ln,78744,30.159822463989247,-97.71561431884766,1.98,3,True,True,True,True,False,False,Single Family,3,2017,439900.0,1,2020-12-01,12,2020,40,0,4,2,4,0,0,0,0,7840.0,2942.0,1,0,1,1,3.1333333333333333,3.6666666666666665,1532,12,4.0,4,2,8,149.52413324269205
pflugerville,1513 Maier Dr,78660,30.4100284576416,-97.6373062133789,1.98,3,True,True,True,True,False,True,Single Family,3,2017,390000.0,2,2020-10-02,10,2020,15,0,4,2,0,1,0,0,0,11325.6,2874.0,0,2,1,1,1.3333333333333333,3.0,1108,14,3.0,4,2,8,135.69937369519832
austin,5321 King Henry Dr,78724,30.289735794067383,-97.66132354736328,1.98,2,False,True,True,True,False,False,Single Family,2,1984,299000.0,3,2020-12-10,12,2020,33,0,2,3,1,1,0,0,0,6534.0,1531.0,1,0,1,1,2.466666666666667,3.6666666666666665,480,14,3.0,4,1,41,195.29719137818418
austin,14605 Staked Plains Loop,78717,30.4970703125,-97.79075622558594,2.21,4,True,True,True,True,False,True,Single Family,4,2004,470000.0,10,2020-06-22,6,2020,70,0,4,3,1,1,0,1,1,7492.0,2792.0,1,0,1,1,1.7666666666666666,8.333333333333334,1481,16,3.0,3,2,21,168.33810888252148
austin,7908 Donnelley Dr,78744,30.151573181152344,-97.71981811523438,1.98,0,True,True,False,True,False,False,Single Family,0,2019,412206.0,2,2019-12-27,12,2019,4,0,3,1,2,1,0,0,0,8398.0,2502.0,1,0,1,1,3.5,3.6666666666666665,1532,12,3.0,3,1,6,164.7505995203837
austin,6005 Gardenridge Holw,78750,30.37074089050293,-97.78797149658205,1.98,0,True,True,False,True,True,False,Single Family,0,1978,424900.0,1,2019-09-25,9,2019,33,0,4,1,2,0,0,1,0,5489.0,1747.0,1,0,1,1,2.2666666666666666,7.0,1523,17,2.0,3,1,47,243.2169433314253
pflugerville,605 Screech Owl Dr,78660,30.43364906311035,-97.6554718017578,1.98,0,True,False,False,False,False,False,Single Family,0,2017,299990.0,1,2020-06-29,6,2020,20,0,0,1,0,1,0,0,0,5314.0,1695.0,1,0,1,1,1.7666666666666668,2.6666666666666665,1063,14,2.0,3,1,8,176.98525073746313
austin,12205 Klondike Rush Point,78726,30.41957855224609,-97.85676574707033,1.98,0,True,True,False,True,False,False,Single Family,0,1992,384900.0,1,2018-06-08,6,2018,28,0,0,1,0,0,0,0,0,11761.2,2484.0,1,0,1,1,1.6333333333333335,7.0,1277,16,3.0,4,2,33,154.95169082125605
austin,9220 China Rose Dr,78724,30.27958106994629,-97.62531280517578,1.98,0,True,True,False,True,False,False,Single Family,0,2014,239900.0,2,2018-09-25,9,2018,28,0,1,1,0,0,0,0,0,5749.0,1650.0,1,0,1,2,2.9333333333333336,3.6666666666666665,1085,11,2.0,3,1,11,145.3939393939394
austin,14505 Amy Francis St,78725,30.23169708251953,-97.59081268310548,1.98,0,True,True,False,True,False,False,Single Family,0,2001,189900.0,1,2019-10-18,10,2019,31,0,1,1,0,0,0,0,0,5314.0,1178.0,1,0,1,1,1.7666666666666666,3.0,1457,13,2.0,3,1,24,161.20543293718166
austin,15316 Staked Plains Loop,78717,30.49666786193848,-97.79542541503906,2.21,2,True,True,True,True,False,True,Single Family,2,2006,375000.0,3,2020-03-31,3,2020,22,0,4,3,3,0,0,1,0,8537.0,1985.0,1,0,1,1,1.7999999999999998,8.333333333333334,1481,16,3.0,3,2,19,188.9168765743073
austin,300 Horseback Holw,78732,30.349687576293945,-97.90381622314452,1.98,3,True,True,True,True,False,True,Single Family,3,2010,649900.0,1,2020-03-31,3,2020,40,0,3,2,1,0,0,0,0,10105.0,3058.0,1,0,1,1,2.566666666666667,8.666666666666666,1533,17,3.0,4,1,15,212.52452583387836
austin,6029 Florencia Ln,78724,30.291261672973643,-97.64215850830078,1.98,0,True,True,False,True,False,False,Single Family,0,2018,428900.0,1,2018-08-24,8,2018,11,0,3,1,0,0,0,0,0,4835.0,2470.0,1,0,1,2,2.966666666666667,3.6666666666666665,1085,11,3.0,3,2,7,173.6437246963563
austin,711 Yabers Ct,78725,30.236879348754886,-97.57853698730467,1.98,0,True,True,False,True,False,False,Single Family,0,2013,194973.0,1,2018-06-15,6,2018,21,0,3,1,0,0,0,0,0,4181.0,1426.0,1,0,1,1,1.933333333333333,3.0,1457,13,2.0,3,1,12,136.72720897615707
austin,6807 Falcata Cv,78750,30.37439155578613,-97.7957000732422,1.98,6,False,True,True,True,True,False,Single Family,6,1982,915000.0,2,2020-11-24,11,2020,40,0,4,2,5,5,0,0,0,11325.6,3078.0,1,0,1,1,2.733333333333333,7.0,1523,17,3.0,4,2,43,297.270955165692
austin,7704 Vista Mejor Dr,78744,30.15945625305176,-97.71625518798828,1.98,2,True,True,True,True,False,False,Single Family,2,2017,375000.0,1,2020-06-29,6,2020,28,0,4,2,2,2,0,1,0,6011.0,1976.0,1,0,1,1,3.1333333333333333,3.6666666666666665,1532,12,2.0,3,1,8,189.77732793522267
austin,12728 Tierra Grande Trl,78732,30.344783782958984,-97.91585540771484,1.98,0,True,True,False,True,False,False,Single Family,0,2009,365000.0,2,2019-07-11,7,2019,1,0,3,1,0,1,0,1,0,5662.0,1947.0,1,0,1,1,2.7,8.333333333333334,1533,17,2.0,3,1,16,187.4678993323061
austin,606 Horseback Holw,78732,30.34939002990723,-97.90281677246094,1.98,0,True,True,False,True,False,False,Single Family,0,2011,590000.0,1,2018-06-16,6,2018,40,0,3,1,0,0,0,0,0,9452.0,3335.0,1,0,1,1,2.566666666666667,8.666666666666666,1533,17,4.0,4,2,14,176.91154422788605
pflugerville,13910 Cantata Ln,78660,30.41420745849609,-97.6439971923828,1.98,0,True,True,False,True,False,False,Condo,0,2017,300000.0,1,2019-07-24,7,2019,25,0,4,1,0,0,0,0,0,12196.8,2112.0,1,0,1,1,1.2,3.6666666666666665,1051,12,3.0,4,2,8,142.04545454545453
austin,11111 Orsini Pl,78750,30.437091827392567,-97.80245208740234,1.98,0,True,True,False,True,False,True,Single Family,0,1979,399500.0,4,2020-05-15,5,2020,26,0,3,1,0,1,0,1,0,14810.4,2537.0,0,1,1,1,1.0,8.666666666666666,1632,16,3.0,4,1,46,157.4694521087899
austin,11616 Mcdows Hole Ln,78717,30.496437072753903,-97.79521942138672,2.21,2,True,True,True,True,False,True,Single Family,2,2007,289000.0,1,2018-04-18,4,2018,27,0,8,5,0,0,0,0,1,8189.0,1815.0,1,0,1,1,1.7999999999999998,8.333333333333334,1481,16,3.0,3,2,18,159.22865013774106
austin,5201 Park At Woodlands Dr,78724,30.274185180664062,-97.63250732421876,1.98,2,True,True,True,True,False,False,Single Family,2,2007,257900.0,2,2020-07-27,7,2020,59,0,6,2,2,1,0,0,0,6229.0,1347.0,1,0,1,2,3.1666666666666665,3.6666666666666665,1085,11,2.0,3,1,18,191.4625092798812
austin,3411 Peavy Dr,78725,30.23242950439453,-97.58869171142578,1.98,0,True,True,False,True,False,False,Single Family,0,2000,205000.0,2,2019-05-02,5,2019,31,0,2,1,0,0,0,0,0,6534.0,1726.0,1,0,1,1,1.7666666666666666,3.0,1457,13,3.0,3,2,25,118.77172653534183
austin,5503 Courtyard Dr,78731,30.35234260559082,-97.79283142089844,1.98,2,True,True,True,True,False,True,Single Family,2,1984,465900.0,9,2020-03-24,3,2020,56,0,4,2,2,0,0,1,0,10628.0,2848.0,1,0,1,1,3.4,7.0,1177,16,4.0,3,2,41,163.5884831460674
austin,14508 Rumfeldt St,78725,30.238656997680664,-97.58609008789062,1.98,0,True,True,False,True,False,False,Single Family,0,1998,214900.0,1,2019-06-06,6,2019,1,0,4,1,0,1,0,0,0,5248.0,1692.0,1,0,1,1,1.6666666666666667,3.0,1457,13,2.0,3,1,27,127.00945626477541
austin,5303 King Henry Dr,78724,30.28877258300781,-97.6601333618164,1.98,0,False,True,False,True,False,False,Single Family,0,1975,250000.0,1,2019-09-20,9,2019,27,0,3,0,1,0,0,1,0,6621.0,1116.0,1,0,1,1,2.5,3.6666666666666665,480,14,2.0,4,1,50,224.01433691756273
austin,3409 Peavy Dr,78725,30.23230361938477,-97.58878326416016,1.98,2,True,True,True,True,False,False,Single Family,2,2000,195000.0,2,2018-10-30,10,2018,28,0,3,2,0,0,0,0,0,5445.0,1476.0,1,0,1,1,1.7666666666666666,3.0,1457,13,3.0,3,2,25,132.1138211382114
austin,10711 Keystone Bnd,78750,30.43033790588379,-97.79794311523438,1.98,2,False,True,True,True,False,True,Single Family,2,1985,550000.0,1,2020-07-20,7,2020,86,0,4,2,2,0,0,1,0,10628.0,2220.0,0,1,1,1,1.1666666666666667,8.666666666666666,1632,16,2.0,3,1,40,247.74774774774775
austin,8003 Caribou Parke Cv,78726,30.41860771179199,-97.85771942138672,1.98,0,True,True,False,True,False,False,Single Family,0,1988,425000.0,2,2019-09-27,9,2019,32,0,3,1,1,0,0,2,0,12632.4,2949.0,1,0,1,1,1.6333333333333335,7.0,1277,16,3.0,4,1,37,144.1166497117667
austin,7208 Brick Slope Path,78744,30.16329002380371,-97.72315216064452,1.98,3,True,True,True,True,False,False,Single Family,3,2015,349900.0,1,2020-04-08,4,2020,24,0,3,2,2,1,0,0,0,6272.0,1844.0,1,0,1,1,3.0666666666666664,3.6666666666666665,1532,12,3.0,3,2,10,189.75054229934923
austin,11520 Mcdows Hole Ln,78717,30.496109008789062,-97.7945327758789,2.21,2,True,True,True,True,False,False,Single Family,2,2006,209495.0,6,2020-07-31,7,2020,62,0,4,3,1,1,0,1,0,7971.0,2126.0,1,0,1,1,1.7999999999999998,8.333333333333334,1481,16,3.0,3,2,19,98.53951081843839
pflugerville,1116 Strickling Dr,78660,30.4328670501709,-97.662109375,1.98,0,True,True,False,True,False,False,Single Family,0,2013,249990.0,1,2018-08-17,8,2018,28,0,4,1,0,0,0,0,0,6141.0,1652.0,1,0,1,1,1.4,2.6666666666666665,1063,14,2.0,3,1,12,151.32566585956417
austin,3307 Etheredge Dr,78725,30.23193168640137,-97.59159088134766,1.98,1,True,True,True,True,False,True,Single Family,1,2005,214900.0,3,2020-05-29,5,2020,21,0,4,2,1,1,0,0,0,4675.0,1569.0,1,0,1,1,1.7666666666666666,3.0,1457,13,3.0,3,2,20,136.9662205226259
austin,12725 Rush Creek Ln,78732,30.35381507873535,-97.90779876708984,1.98,2,True,True,True,True,False,False,Single Family,2,2005,475000.0,1,2018-05-24,5,2018,32,0,1,2,0,0,0,0,0,10018.0,2746.0,1,0,1,1,2.5,8.666666666666666,1533,17,3.0,4,1,20,172.97887836853604
austin,9105 Skye Cv,78750,30.42526817321777,-97.7972640991211,1.98,0,True,True,False,True,False,False,Single Family,0,1989,612000.0,9,2018-02-22,2,2018,39,0,3,1,0,0,0,0,0,10367.0,3033.0,1,0,1,1,1.3666666666666665,9.0,1616,16,3.0,4,2,36,201.78041543026706
austin,11600 Mcdows Hole Ln,78717,30.496198654174805,-97.7946548461914,2.21,0,True,True,False,True,False,False,Single Family,0,2007,340000.0,4,2019-09-25,9,2019,25,0,6,2,0,0,0,0,0,7753.0,2015.0,1,0,1,1,1.7999999999999998,8.333333333333334,1481,16,3.0,3,2,18,168.73449131513647
austin,8024 Annalise Dr,78744,30.17609214782715,-97.69621276855467,1.98,2,True,True,True,True,False,False,Single Family,2,2016,328000.0,3,2020-09-04,9,2020,51,0,4,2,3,2,0,0,0,6995.0,1891.0,1,0,1,1,2.9333333333333336,3.6666666666666665,1532,12,3.0,3,2,9,173.45319936541512
austin,7000 Cut Plains Trl,78726,30.39945983886719,-97.8441925048828,1.98,4,True,True,True,True,True,False,Single Family,4,2016,525000.0,1,2020-11-09,11,2020,35,1,4,2,2,1,0,0,0,8363.0,1953.0,1,0,1,1,0.9,7.0,1381,16,3.0,3,1,9,268.81720430107526
austin,1213 Red Oak Valley Ct,78732,30.349781036376964,-97.89220428466795,1.98,2,True,True,True,True,False,True,Residential,0,2006,485000.0,6,2020-12-21,12,2020,25,0,8,3,4,1,0,0,7,11325.6,2255.0,1,0,1,1,2.6,8.333333333333334,1533,17,2.0,3,1,19,215.07760532150775
austin,11125 Sandstone Trl,78750,30.452259063720703,-97.81585693359376,2.21,0,True,True,False,True,False,False,Single Family,0,2004,452000.0,4,2019-09-20,9,2019,35,0,3,2,0,0,0,0,0,6272.0,2825.0,1,0,1,1,0.7000000000000001,7.666666666666668,1281,14,3.0,4,2,21,160.0
austin,7812 Donnelley Dr,78744,30.15183067321777,-97.7192153930664,1.98,2,True,False,True,False,False,False,Single Family,2,2019,429900.0,6,2019-12-01,12,2019,3,0,0,1,0,0,0,0,0,5985.0,2570.0,1,0,1,1,3.466666666666667,3.6666666666666665,1532,12,3.0,4,2,6,167.27626459143968
austin,14312 Staked Plains Loop,78717,30.49550628662109,-97.79438018798828,2.21,0,True,True,False,True,False,False,Single Family,0,2007,199000.0,5,2018-03-13,3,2018,1,0,0,2,0,0,0,0,0,6098.0,1626.0,1,0,1,1,1.8333333333333333,8.333333333333334,1481,16,2.0,3,1,18,122.38622386223862
pflugerville,14720 Lake Victor Dr,78660,30.433448791503903,-97.66317749023438,1.98,0,True,True,False,True,False,False,Single Family,0,2014,249087.0,11,2018-09-28,9,2018,29,0,4,1,0,0,0,0,0,9016.0,2502.0,1,0,1,1,1.3333333333333333,2.6666666666666665,1063,14,3.0,4,2,11,99.55515587529976
austin,9021 Quick Stream Dr,78724,30.27707481384277,-97.63145446777344,1.98,2,True,True,True,True,False,False,Single Family,2,2007,225000.0,4,2018-04-12,4,2018,26,0,4,2,0,0,0,0,0,5706.0,1442.0,1,0,1,2,3.0,3.6666666666666665,1085,11,2.0,3,1,18,156.03328710124828
austin,4719 Fallenash Dr,78725,30.24663543701172,-97.5843734741211,1.98,0,True,True,False,True,False,False,Single Family,0,1996,156485.0,7,2019-11-21,11,2019,23,0,3,1,1,0,0,0,0,5662.0,1898.0,1,0,1,1,1.7,3.0,1457,13,3.0,3,2,29,82.44731296101159
austin,176 Stoney Point Rd,78737,30.17479705810547,-97.99333953857422,2.01,0,True,True,False,True,False,True,Single Family,0,2015,519900.0,1,2020-03-09,3,2020,1,0,6,1,2,4,0,1,0,15681.6,3181.0,0,0,2,0,0.5,8.0,743,15,4.0,4,1,10,163.4391700723043
austin,14308 Homestead Village Cir,78717,30.495906829833984,-97.79511260986328,2.21,3,True,True,True,True,False,False,Single Family,3,2007,409000.0,2,2019-03-25,3,2019,29,0,1,3,0,0,0,0,0,11761.2,2868.0,1,0,1,1,1.8333333333333333,8.333333333333334,1481,16,4.0,4,2,18,142.60808926080892
austin,8007 Weldon Springs Ct,78726,30.41972732543945,-97.85973358154295,1.98,2,True,True,True,True,False,False,Single Family,2,1989,329000.0,4,2020-09-04,9,2020,40,0,1,2,1,0,0,2,0,11761.2,3071.0,1,0,1,1,1.8,7.0,1277,16,4.0,4,1,36,107.13122761315532
austin,9404 China Rose Dr,78724,30.279163360595703,-97.62425231933594,1.98,2,True,True,True,True,True,False,Single Family,2,2014,298500.0,2,2020-10-26,10,2020,32,0,3,2,0,1,0,0,0,8319.0,1891.0,1,0,1,2,2.9,3.6666666666666665,1085,11,2.0,3,1,11,157.8529878371232
pflugerville,13904 Cantata Ln,78660,30.413928985595703,-97.64420318603516,1.98,2,True,True,True,True,False,False,Single Family,2,2017,278000.0,3,2020-04-07,4,2020,28,0,4,2,2,1,0,0,0,12196.8,1535.0,1,0,1,1,1.2,3.6666666666666665,1051,12,2.0,3,1,8,181.1074918566775
